     3.03           OBSERVATION DATA    M: Mixed            RINEX VERSION / TYPE
RTKCONV demo5 b33c                      20210524 112041 UTC PGM / RUN BY / DATE 
log: C:\Users\Ivan_PolyU_Dktp\Dropbox\HUAWEI Exp\20210521_  COMMENT             
format: RINEX                                               COMMENT             
                                                            MARKER NAME         
                                                            MARKER NUMBER       
                                                            MARKER TYPE         
                                                            OBSERVER / AGENCY   
                                                            REC # / TYPE / VERS 
                                                            ANT # / TYPE        
 -2418136.8695  5385860.7891  2405565.9777                  APPROX POSITION XYZ 
        0.0000        0.0000        0.0000                  ANTENNA: DELTA H/E/N
G    4 C1C L1C D1C S1C                                      SYS / # / OBS TYPES 
C    4 C2I L2I D2I S2I                                      SYS / # / OBS TYPES 
  2021     5    21     6    29    6.0010000     GPS         TIME OF FIRST OBS   
  2021     5    21     6    54   39.9990000     GPS         TIME OF LAST OBS    
G                                                           SYS / PHASE SHIFT   
C                                                           SYS / PHASE SHIFT   
  0                                                         GLONASS SLOT / FRQ #
 C1C    0.000 C1P    0.000 C2C    0.000 C2P    0.000        GLONASS COD/PHS/BIS 
                                                            END OF HEADER       
> 2021  5 21  6 29  6.0010000  0 12                     
G14  20618900.381 9                     -1252.533          24.000  
G28  20973494.006 9                       327.445          25.000  
G 6  22073820.103 4 115998707.75224       296.465          27.000  
C11  23508148.739 8 122413064.69735      -487.063          26.000  
C 8  36926612.751 9                     -1238.943          21.000  
C25  23676133.784 8                     -1596.810          26.000  
C10  36359745.603 9                      -361.104          22.000  
C13  36981984.682 9                      -867.673          22.000  
G17  22174698.852 9                      -114.581          26.000  
G30  24070510.540 9                     -3471.000          22.000  
G 2  24692089.861 9                      1077.761          25.000  
G19  22496321.215 4 118218945.58824       651.442          27.000  
> 2021  5 21  6 29  7.0010000  0 12                     
G14  20619138.524 9                     -1251.591          23.000  
G28  20973433.087 9                       326.339          25.000  
G 6  22073763.669 4 115998411.81024       296.056          27.000  
C11  23508242.133 8 122413551.90425      -486.792          26.000  
C 8  36926848.224 9                     -1242.524          21.000  
C25  23676438.500 8 123289399.23725     -1596.736          26.000  
C10  36359816.154 9                      -370.985          22.000  
C13  36982149.098 9                      -861.148          22.000  
G17  22174717.925 8 116528947.44835      -113.809          26.000  
G30  24071167.925 9                     -3471.000          21.000  
G 2  24691886.182 9                      1075.964          25.000  
G19  22496196.568 4 118218293.46914       652.463          27.000  
> 2021  5 21  6 29  8.0010000  0 11                     
G14  20619377.924 9                     -1252.916          24.000  
G28  20973371.348 9                       326.317          25.000  
G 6  22073710.463 4 115998115.22223       296.548          27.000  
C11  23508334.881 8 122414038.50625      -486.407          26.000  
C 8  36927083.313 9                     -1227.104          21.000  
C25  23676745.850 4 123290995.56025     -1596.484          26.000  
C10  36359884.908 9                      -358.523          21.000  
C13  36982317.074 9                      -866.984          22.000  
G17  22174738.412 4 116529061.81124      -114.398          27.000  
G 2  24691678.821 9                      1078.178          24.000  
G19  22496073.474 9                       652.439          27.000  
> 2021  5 21  6 29  9.0010000  0 11                     
G14  20619615.823 9                     -1254.326          24.000  
G28  20973310.028 9                       326.930          24.000  
G 6  22073651.359 4 115997817.69423       297.801          27.000  
C11  23508428.239 9                      -487.300          25.000  
C 8  36927319.572 9                     -1227.927          20.000  
C25  23677052.084 4 123292591.02924     -1595.145          26.000  
C10  36359954.762 9                      -364.693          21.000  
C13  36982483.584 9                      -866.300          21.000  
G17  22174758.357 4 116529176.15624      -114.594          27.000  
G 2  24691475.247 9                      1077.984          23.000  
G19  22495951.462 9                       653.345          26.000  
> 2021  5 21  6 29 10.0010000  0 11                     
G14  20619853.704 9                     -1270.375          23.000  
G28  20973248.726 9                       322.769          23.000  
G 6  22073593.651 9                       299.076          26.000  
C11  23508522.593 9                      -480.059          23.000  
C 8  36927556.162 9                     -1232.443          20.000  
C25  23677359.697 9                     -1595.067          26.000  
C10  36360024.388 9                      -352.527          21.000  
C13  36982648.122 9                      -867.326          21.000  
G17  22174779.577 8 116529252.62735      -114.797          26.000  
G 2  24691269.387 9                      1079.996          22.000  
G19  22495827.252 9                       654.351          25.000  
> 2021  5 21  6 29 11.0010000  0 11                     
G14  20620092.615 9                     -1260.500          24.000  
G28  20973186.673 9                       334.181          23.000  
G 6  22073538.334 8                       298.382          26.000  
C11  23508614.555 9                      -484.330          22.000  
C 8  36927794.654 9                     -1228.414          20.000  
C25  23677665.477 9                     -1594.659          26.000  
C10  36360094.206 9                      -356.267          20.000  
C13  36982813.376 9                      -865.487          21.000  
G17  22174801.302 4 116529365.76225      -112.543          26.000  
G 2  24691064.731 9                      1082.200          23.000  
G19  22495702.011 9                       656.323          26.000  
> 2021  5 21  6 29 12.0010000  0 12                     
G14  20620330.374 9                     -1257.481          25.000  
G28  20973126.050 9                       326.065          25.000  
G 6  22073483.349 8 115996937.56235       296.171          28.000  
C11  23508706.797 9                      -482.263          30.000  
C 8  36928032.326 9                     -1231.191          22.000  
C25  23677974.764 8 123297382.05434     -1598.149          29.000  
C10  36360163.885 9                      -357.955          22.000  
C13  36982980.915 9                      -870.484          23.000  
G17  22174827.844 8 116529476.91924      -109.893          31.000  
G30  24074444.552 9                     -3465.094          22.000  
G 2  24690858.609 9                      1076.364          24.000  
G19  22495577.452 8 118215054.33335       658.083          28.000  
> 2021  5 21  6 29 13.0010000  0 13                     
G14  20620570.035 9                     -1257.697          26.000  
G28  20973065.917 9                       324.838          26.000  
G 6  22073426.566 8 115996641.83124       296.696          29.000  
C11  23508796.753 9 122416455.77135      -481.192          29.000  
C 8  36928268.637 9                     -1230.371          23.000  
C25  23678280.091 8 123298980.45624     -1598.514          28.000  
C10  36360231.295 9                      -361.176          23.000  
C13  36983149.955 9                      -868.278          25.000  
G17  22174851.367 8 116529587.00624      -109.860          30.000  
G30  24075111.377 9                     -3465.094          22.000  
G 2  24690653.551 9 129750259.82535      1076.177          26.000  
C23  25920645.390 9                       874.709          23.000  
G19  22495449.716 8 118214396.70424       658.281          28.000  
> 2021  5 21  6 29 14.0010000  0 14                     
G14  20620810.046 8 108363087.88835     -1258.026          28.000  
G28  20973000.967 9 110213879.71235       325.292          29.000  
G 6  22073370.481 8 115996346.43623       295.530          32.000  
C11  23508891.543 8 122416937.04223      -480.881          29.000  
C 3  36810027.078 9                      -750.293          28.000  
C 8  36928503.813 9                     -1228.806          26.000  
C25  23678586.307 8 123300579.18123     -1599.207          30.000  
C10  36360299.386 9                      -359.571          26.000  
C13  36983317.408 8 192581807.51334      -867.906          27.000  
G17  22174865.484 4 116529696.53822      -109.142          34.000  
G30  24075777.382 9                     -3471.545          26.000  
G 2  24690449.418 8 129749184.23525      1075.430          26.000  
C23  25920478.776 9                       875.722          25.000  
G19  22495325.209 4 118213738.69022       658.419          31.000  
> 2021  5 21  6 29 15.0010000  0 12                     
G28  20972936.593 8 110213555.04624       324.397          28.000  
C 7  36157022.497 9                      -794.038          28.000  
G 6  22073317.921 8 115996051.35724       294.285          31.000  
C11  23508986.367 8 122417417.84923      -480.756          29.000  
C 8  36928740.822 8 192297612.65535     -1230.329          26.000  
C25  23678893.169 8 123302178.41223     -1599.730          31.000  
C10  36360368.750 9                      -359.221          26.000  
C13  36983483.097 4 192582675.56924      -867.692          28.000  
G17  22174884.313 8 116529805.55722      -110.017          32.000  
G 2  24690244.937 8 129748109.05924      1074.864          27.000  
C23  25920311.219 9                       875.699          25.000  
G19  22495202.290 4 118213080.11323       658.646          30.000  
> 2021  5 21  6 29 16.0010000  0 12                     
G28  20972880.055 4 110213230.19523       325.161          28.000  
C 7  36157187.978 9 188279934.47335      -794.061          29.000  
G 6  22073264.977 4 115995755.92922       294.952          31.000  
C11  23509077.440 4 122417897.48123      -478.433          29.000  
C 8  36928976.557 4 192298842.39524     -1228.853          28.000  
C25  23679201.236 8 123303777.53922     -1599.385          32.000  
C10  36360436.265 9                      -357.841          27.000  
C13  36983652.016 4 192583543.40923      -867.250          28.000  
G17  22174908.272 4 116529913.45522      -106.226          32.000  
G 2  24690039.426 4 129747033.69924      1075.475          27.000  
C23  25920144.307 9                       877.426          27.000  
G19  22495071.605 4 118212420.33122       661.398          30.000  
> 2021  5 21  6 29 17.0010000  0 13                     
G14  20621524.475 9                     -1259.216          29.000  
G28  20972818.839 4 110212904.86123       324.907          29.000  
G 6  22073201.318 8 115995460.02823       295.404          31.000  
C11  23509167.518 8 122418374.25523      -475.790          30.000  
C 8  36929211.018 4 192300071.24623     -1228.481          28.000  
C25  23679510.349 4 123305376.68022     -1599.525          32.000  
C10  36360505.874 8 189338659.77634      -358.085          28.000  
C13  36983817.513 4 192584411.00823      -867.377          29.000  
G17  22174928.532 4 116530018.89522      -104.690          33.000  
G30  24077758.121 9                     -3475.474          27.000  
G 2  24689834.298 4 129745958.68123      1074.718          28.000  
C23  25919973.208 8 134972082.35134       880.044          28.000  
G19  22494945.789 8 118211757.45522       663.521          31.000  
> 2021  5 21  6 29 18.0010000  0 12                     
G28  20972750.941 4 110212579.08124       325.938          29.000  
G 6  22073148.845 8 115995163.92524       295.110          31.000  
C11  23509258.486 8                      -473.214          30.000  
C 8  36929448.044 4 192301299.32523     -1227.592          28.000  
C25  23679815.780 8 123306976.20123     -1599.802          32.000  
C10  36360574.960 4 189339017.10724      -357.129          29.000  
C13  36983984.128 4 192585278.81523      -867.875          29.000  
G17  22174949.838 8 116530121.86222      -102.311          33.000  
C 3  36810603.197 9                      -746.680          30.000  
G 2  24689627.967 4 129744884.11224      1073.819          27.000  
C23  25919804.604 8 134971200.66524       883.108          28.000  
G19  22494816.395 8 118211091.51723       666.471          31.000  
> 2021  5 21  6 29 19.0010000  0 14                     
G14  20622009.539 9                     -1261.914          32.000  
G28  20972687.143 8 110212253.11624       325.801          30.000  
C 7  36157651.473 9                      -795.642          30.000  
G 6  22073090.352 8 115994867.820 3       295.710          32.000  
C11  23509348.477 8 122419318.02833      -471.151          30.000  
C 8  36929683.361 4 192302526.92023     -1227.588          29.000  
C25  23680124.125 4 123308576.18222     -1600.345          32.000  
C10  36360643.452 4 189339373.81223      -355.814          29.000  
C13  36984151.039 8 192586146.85523      -867.904          30.000  
G17  22174967.777 4 116530222.715 2      -100.839          34.000  
C24  24941429.999 9                     -3693.799          30.000  
G 2  24689427.289 8 129743810.07424      1074.073          29.000  
C23  25919634.377 4 134970316.84424       885.387          28.000  
G19  22494692.551 8 118210422.910 3       670.491          31.000  
> 2021  5 21  6 29 20.0010000  0 13                     
G14  20622242.150 9 108370613.76435     -1264.059          32.000  
G28  20972629.906 8 110211927.16423       325.904          31.000  
G 6  22073034.878 4 115994571.522 2       296.352          33.000  
C11  23509440.614 4 122419787.93822      -468.539          34.000  
C 8  36929917.857 4 192303753.95523     -1227.528          31.000  
C25  23680431.703 4 123310176.30421     -1600.300          38.000  
C10  36360709.606 4 189339730.11522      -356.255          33.000  
C13  36984315.735 4 192587014.86122      -867.985          34.000  
G17  22174986.100 4 116530322.009 1       -98.726          35.000  
G 2  24689223.192 8 129742736.39524      1073.073          27.000  
C23  25919466.593 4 134969431.33223       886.015          33.000  
G30  24079742.054 9 126539897.68334     -3483.911          31.000  
G19  22494565.147 4 118209752.445 2       671.369          32.000  
> 2021  5 21  6 29 21.0010000  0 15                     
G14  20622489.141 9 108371878.19422     -1264.798          32.000  
G28  20972568.394 8 110211600.93823       326.466          32.000  
C 7  36157954.479 9                      -799.426          34.000  
G 6  22072978.060 4 115994274.848 2       297.427          33.000  
C11  23509528.580 4 122420255.86822      -466.801          33.000  
C 8  36930150.206 8 192304979.81113     -1225.452          32.000  
C25  23680737.727 4 123311776.01512     -1600.800          35.000  
C10  36360779.215 4 189340085.67522      -354.094          32.000  
C13  36984485.857 4 192587882.25512      -867.613          33.000  
G17  22175003.882 4 116530419.561 1       -96.351          35.000  
C 3  36811045.752 9                      -751.070          33.000  
C 2  37503716.265 9                      -750.578          29.000  
G 2  24689022.549 9                      1069.569          23.000  
C23  25919295.249 8 134968543.83623       888.831          31.000  
G19  22494440.518 4 118209079.683 2       674.487          33.000  
> 2021  5 21  6 29 22.0010000  0 14                     
G14  20622730.686 8 108373143.63522     -1266.246          31.000  
G28  20972505.800 8 110211274.50923       325.727          31.000  
G 6  22072920.422 4 115993977.819 2       296.946          32.000  
C11  23509620.124 4 122420721.68122      -465.467          32.000  
C 8  36930387.076 8 192306205.597 3     -1225.320          31.000  
C25  23681045.601 4 123313376.152 2     -1600.519          35.000  
C10  36360847.235 8 189340440.67723      -354.821          31.000  
C13  36984652.541 8 192588749.906 3      -867.479          32.000  
G17  22175024.316 4 116530515.435 1       -95.956          35.000  
C 2  37503861.992 9                      -780.273          28.000  
G 2  24688820.004 9                      1069.569          19.000  
C23  25919123.871 8 134967654.25523       890.585          30.000  
G30  24081057.329 9                     -3489.691          28.000  
G19  22494307.390 4 118208404.664 2       675.374          32.000  
> 2021  5 21  6 29 23.0010000  0 12                     
G14  20622972.878 8 108374409.97623     -1268.060          30.000  
G28  20972444.480 8 110210947.94523       326.354          30.000  
G 6  22072860.358 8 115993680.343 3       297.955          31.000  
C11  23509709.260 8 122421185.75122      -463.439          31.000  
C 8  36930623.840 8 192307430.807 4     -1224.964          29.000  
C25  23681354.313 4 123314976.164 2     -1599.387          32.000  
C10  36360918.171 8 189340795.13024      -353.955          30.000  
C13  36984816.887 8 192589617.415 3      -868.343          29.000  
G17  22175041.644 4 116530609.821 2       -93.151          33.000  
C 2  37504017.509 9                      -849.951          27.000  
C23  25918952.876 8 134966762.97923       891.640          28.000  
G19  22494176.304 4 118207727.675 2       678.070          32.000  
> 2021  5 21  6 29 24.0010000  0 13                     
G14  20623213.761 8 108375677.26023     -1268.860          31.000  
G28  20972382.619 8 110210621.61022       325.589          31.000  
C 7  36158411.168 9                      -807.275          27.000  
G 6  22072809.892 4 115993382.945 2       295.903          32.000  
C11  23509798.884 8 122421648.84823      -463.360          31.000  
C 8  36930856.469 8 192308655.862 4     -1225.815          29.000  
C25  23681661.123 4 123316576.552 2     -1600.837          32.000  
C10  36360985.930 4 189341149.44023      -354.555          29.000  
C13  36984985.858 8 192590484.909 3      -867.629          29.000  
G17  22175059.932 4 116530703.491 2       -93.909          35.000  
C 3  36811485.096 9                      -765.332          29.000  
C23  25918784.464 4 134965870.94923       891.486          28.000  
G19  22494047.556 4 118207049.579 2       677.969          33.000  
> 2021  5 21  6 29 25.0010000  0 12                     
G14  20623453.387 8 108376945.30223     -1267.688          32.000  
G28  20972320.356 8 110210295.54712       325.777          31.000  
G 6  22072751.260 8 115993086.146 2       296.151          33.000  
C11  23509886.449 4 122422112.28923      -463.477          32.000  
C 8  36931095.136 8 192309881.233 3     -1224.805          30.000  
C25  23681968.160 4 123318177.681 2     -1601.843          35.000  
C10  36361052.118 4 189341504.15823      -355.074          30.000  
C13  36985150.466 4 192591352.849 2      -868.676          30.000  
G17  22175078.045 2 116530797.517 1       -93.763          35.000  
C23  25918611.009 8 134964979.57923       890.951          29.000  
G30  24083057.543 9                     -3489.111          31.000  
G19  22493921.688 4 118206371.918 2       677.588          33.000  
> 2021  5 21  6 29 26.0010000  0 15                     
G14  20623696.469 4 108378213.96922     -1268.599          32.000  
G28  20972260.014 4 110209970.771 2       323.960          32.000  
G 6  22072695.890 4 115992790.213 2       294.586          35.000  
C11  23509976.458 4 122422576.42222      -464.551          33.000  
C 8  36931329.457 8 192311107.120 3     -1226.300          31.000  
C25  23682275.580 4 123319779.624 2     -1603.007          35.000  
C10  36361119.249 4 189341859.20922      -355.661          31.000  
C13  36985315.684 4 192592221.127 2      -869.275          32.000  
G17  22175096.054 2 116530891.977 1       -95.217          36.000  
C 3  36811779.848 9                      -746.078          30.000  
C 2  37504440.851 9                      -769.531          29.000  
C24  24946415.561 9                     -3709.473          32.000  
C23  25918438.322 4 134964089.56023       889.982          29.000  
G30  24083738.433 9 126560899.39234     -3489.007          29.000  
G19  22493794.249 4 118205695.056 2       675.487          34.000  
> 2021  5 21  6 29 27.0010000  0 14                     
G14  20623939.830 4 108379483.04022     -1268.026          32.000  
G28  20972194.855 8 110209646.613 3       324.640          31.000  
G 6  22072639.840 4 115992494.642 2       296.322          34.000  
C11  23510065.192 4 122423041.113 2      -464.515          33.000  
C 8  36931566.361 8 192312333.137 3     -1224.639          30.000  
C25  23682583.507 4 123321382.016 2     -1603.176          34.000  
C10  36361187.497 8 189342214.04013      -355.660          31.000  
C13  36985486.208 8 192593089.483 3      -868.461          31.000  
G17  22175111.637 8 116530987.327 4       -96.608          28.000  
C 3  36811923.603 9                      -765.771          31.000  
C 2  37504584.972 9                      -737.744          29.000  
C24  24947126.221 9 129906200.80035     -3707.021          31.000  
C23  25918265.477 8 134963200.25814       888.498          28.000  
G19  22493663.250 4 118205018.714 2       676.047          31.000  
> 2021  5 21  6 29 28.0010000  0 17                     
G14  20624180.677 8 108380752.56923     -1270.277          31.000  
G28  20972132.767 8 110209323.110 3       322.146          31.000  
G 6  22072585.064 4 115992199.376 2       295.191          33.000  
C11  23510154.328 4 122423506.299 2      -466.299          33.000  
C 8  36931806.598 8 192313559.370 3     -1225.552          30.000  
C25  23682890.979 4 123322984.534 2     -1603.284          34.000  
C10  36361258.083 8 189342569.522 3      -355.829          30.000  
C13  36985649.106 8 192593957.698 4      -868.915          31.000  
C 1  37822848.779 9                      -775.461          29.000  
G17  22175132.839 9                       -97.085          26.000  
C 3  36812067.864 9 191690065.60935      -761.738          31.000  
C 2  37504730.577 9                      -756.561          29.000  
C 4  38752370.016 9                      -767.334          27.000  
C24  24947834.473 9 129909907.33523     -3706.900          31.000  
G30  24085062.678 9                     -3485.596          31.000  
C23  25918097.519 4 134962312.210 4       887.023          28.000  
G19  22493534.974 4 118204343.147 3       675.200          29.000  
> 2021  5 21  6 29 29.0010000  0 19                     
G14  20624421.456 8 108382022.86922     -1270.411          32.000  
G28  20972070.888 8 110209000.583 3       321.450          31.000  
C 7  36159182.171 9                      -796.582          32.000  
G 6  22072527.530 4 115991903.747 2       296.500          34.000  
C11  23510243.917 4 122423972.277 2      -467.006          32.000  
C 8  36932038.651 8 192314786.051 3     -1225.643          30.000  
C25  23683198.609 4 123324586.756 2     -1601.557          34.000  
C10  36361325.720 8 189342925.722 3      -356.670          30.000  
C13  36985816.401 8 192594825.499 3      -867.465          31.000  
C 1  37823001.713 9                      -804.443          29.000  
G17  22175148.806 9                       -97.327          26.000  
C 3  36812218.825 9 191690827.61224      -761.813          31.000  
C 2  37504877.473 9                      -756.152          29.000  
C21  24333994.865 9                      -134.239          28.000  
C 4  38752522.636 9                      -821.582          27.000  
C24  24948544.435 8 129913612.71423     -3704.735          32.000  
G30  24085731.562 9 126571373.63735     -3484.485          32.000  
C23  25917927.118 8 134961424.813 3       887.046          30.000  
G19  22493405.493 8                       677.398          27.000  
> 2021  5 21  6 29 30.0010000  0 20                     
G14  20624663.891 4 108383293.92722     -1271.602          33.000  
G28  20972013.896 8 110208679.114 2       320.709          32.000  
C 7  36159342.085 9 188291151.42233      -801.428          32.000  
G 6  22072468.898 4 115991606.400 2       297.824          34.000  
C11  23510333.175 4 122424439.776 3      -468.517          27.000  
C 8  36932271.874 8 192316013.137 3     -1227.353          30.000  
C25  23683506.100 4 123326187.043 2     -1599.100          35.000  
C10  36361394.945 8 189343282.509 3      -357.149          30.000  
C13  36985985.354 4 192595691.882 2      -865.864          31.000  
C 1  37823150.720 9                      -794.817          29.000  
G17  22175168.455 9                       -99.958          25.000  
C 3  36812364.884 8 191691588.10123      -760.393          31.000  
C 2  37505020.966 9                      -747.119          29.000  
C21  24334018.580 9 126713589.13134      -137.500          29.000  
C14  25559031.595 9                      2144.991          26.000  
C 4  38752676.372 9                      -804.492          27.000  
C24  24949257.696 8 129917315.40022     -3701.278          33.000  
G30  24086385.003 9 126574854.86025     -3478.534          30.000  
C23  25917756.140 4 134960537.842 3       886.806          29.000  
G19  22493275.890 9                       672.404          26.000  
> 2021  5 21  6 29 31.0010000  0 20                     
G14  20624907.811 4 108384565.14022     -1271.516          32.000  
G28  20971953.064 8 110208358.712 3       319.083          31.000  
C 7  36159493.989 8 188291952.80122      -801.178          33.000  
G 6  22072411.975 4 115991306.764 2       301.234          33.000  
C11  23510422.415 9                      -472.196          25.000  
C 8  36932510.418 8 192317240.390 3     -1227.536          31.000  
C25  23683813.014 4 123327784.845 2     -1597.730          35.000  
C10  36361463.804 8 189343639.919 3      -358.350          30.000  
C13  36986149.229 8 192596556.153 2      -863.281          32.000  
C 1  37823306.586 9                      -778.906          28.000  
G17  22175194.578 9                      -104.878          22.000  
C 3  36812509.930 8 191692346.28023      -756.283          31.000  
C 2  37505165.628 9                      -751.571          29.000  
C21  24334050.740 9 126713727.60123      -139.325          31.000  
C14  25558616.385 9 133090405.55334      2150.016          31.000  
C24  24949966.174 4 129921013.80622     -3695.958          32.000  
G30  24087046.419 9 126578330.96425     -3473.688          30.000  
G 2  24687002.198 9                      1069.569          11.000  
C23  25917587.554 8 134959651.786 3       883.752          32.000  
G19  22493150.772 8 118202304.54834       669.789          29.000  
> 2021  5 21  6 29 32.0010000  0 19                     
G14  20625148.571 8 108385836.28923     -1270.359          31.000  
G28  20971892.355 8 110208039.716 2       318.042          31.000  
C 7  36159644.270 8 188292753.93422      -800.812          33.000  
G 6  22072354.738 4 115991005.492 2       301.780          33.000  
C11  23510514.169 9                      -474.171          32.000  
C 8  36932746.258 4 192318468.315 3     -1227.317          30.000  
C25  23684119.353 4 123329380.331 2     -1594.530          35.000  
C10  36361527.742 8 189343998.339 3      -358.827          30.000  
C13  36986315.390 8 192597418.619 3      -863.432          31.000  
C 1  37823454.337 9                      -787.256          29.000  
G17  22175212.708 9                      -104.878          19.000  
C 3  36812655.238 8 191693101.51423      -753.578          32.000  
C 2  37505309.296 9                      -747.656          29.000  
C21  24334078.382 8 126713868.12224      -140.925          29.000  
C14  25558204.403 9 133088252.18724      2157.412          29.000  
C24  24950674.584 4 129924706.57922     -3690.133          33.000  
G30  24087708.358 8 126581800.41325     -3465.332          29.000  
C23  25917417.990 9                       881.796          26.000  
G19  22493025.061 8 118201635.81622       666.627          34.000  
> 2021  5 21  6 29 33.0010000  0 19                     
G14  20625389.245 8 108387107.28323     -1271.135          31.000  
G28  20971829.848 8 110207722.464 2       316.836          31.000  
C 7  36159797.728 4 188293554.31322      -799.713          33.000  
G 6  22072297.205 4 115990703.753 2       300.653          33.000  
C11  23510605.486 8 122425861.13133      -478.629          31.000  
C 8  36932979.602 4 192319697.437 3     -1229.878          29.000  
C25  23684425.482 2 123330974.826 1     -1594.015          35.000  
C10  36361597.909 4 189344358.200 3      -360.426          30.000  
C13  36986480.364 8 192598279.879 3      -860.951          31.000  
C 1  37823607.078 9 196957416.05535      -789.169          30.000  
G17  22175230.560 9                      -108.275          16.000  
C 3  36812799.394 4 191693853.83623      -751.732          32.000  
C 2  37505452.126 9                      -751.074          30.000  
C21  24334102.358 8 126714009.33224      -141.523          29.000  
C 4  38753135.016 9                      -822.297          27.000  
C24  24951383.795 8 129928393.57923     -3684.070          32.000  
G30  24088365.341 9                     -3462.221          28.000  
C23  25917250.834 9                       883.451          25.000  
G19  22492898.442 4 118200971.32522       662.123          35.000  
> 2021  5 21  6 29 34.0010000  0 19                     
G14  20625630.529 4 108388378.24122     -1270.477          32.000  
G28  20971770.570 8 110207407.217 3       314.362          30.000  
C 7  36159952.337 8 188294354.04523      -799.573          31.000  
G 6  22072239.846 4 115990402.361 2       301.433          32.000  
C11  23510698.617 8 122426340.75824      -480.322          30.000  
C 8  36933217.553 4 192320927.875 3     -1230.906          29.000  
C25  23684731.733 4 123332569.142 2     -1593.865          34.000  
C10  36361672.352 8 189344719.681 3      -362.333          30.000  
C13  36986644.623 8 192599140.879 3      -861.385          31.000  
C 1  37823758.372 9 196958203.51025      -785.747          30.000  
G17  22175251.553 9                      -108.275          12.000  
C 3  36812943.411 8 191694603.63625      -746.755          31.000  
C 2  37505595.636 9                      -750.977          29.000  
C21  24334131.465 8 126714150.37523      -140.049          30.000  
C14  25557378.676 9                      2164.591          26.000  
C24  24952091.838 4 129932075.771 3     -3680.492          33.000  
G30  24089022.377 9 126588666.41335     -3455.621          29.000  
C23  25917078.670 9                       873.800          26.000  
G19  22492772.556 8 118200311.00023       658.195          32.000  
> 2021  5 21  6 29 35.0010000  0 18                     
G14  20625872.895 4 108389649.12422     -1271.850          34.000  
G28  20971712.339 8 110207093.531 3       312.365          29.000  
C 7  36160103.857 8 188295152.86923      -798.370          29.000  
G 6  22072182.592 4 115990101.844 2       299.361          33.000  
C11  23510790.353 8 122426824.20923      -485.325          30.000  
C 8  36933451.683 4 192322159.594 3     -1232.271          29.000  
C25  23685037.897 4 123334163.771 2     -1595.798          35.000  
C10  36361740.791 8 189345082.381 3      -363.610          29.000  
C13  36986812.965 8 192600001.726 3      -861.404          32.000  
C 1  37823908.374 8 196958988.28325      -783.416          30.000  
C 3  36813087.427 8 191695351.34023      -747.114          31.000  
C 2  37505738.083 9                      -740.234          30.000  
C21  24334157.309 8 126714290.67923      -139.596          31.000  
C14  25556955.735 9 133081743.63335      2172.877          27.000  
C24  24952797.315 4 129935753.212 3     -3675.948          33.000  
G30  24089678.924 8 126592120.32224     -3451.917          29.000  
C23  25916913.644 9 134956126.14835       869.386          26.000  
G19  22492646.705 4 118199654.91022       653.335          32.000  
> 2021  5 21  6 29 36.0010000  0 20                     
G14  20626114.947 4 108390919.84122     -1270.479          34.000  
G28  20971653.200 4 110206781.475 3       311.678          31.000  
C 7  36160258.693 4 188295950.66623      -797.742          33.000  
G 6  22072125.966 2 115989802.675 2       299.295          36.000  
C11  23510882.281 8 122427311.07023      -486.750          30.000  
C 8  36933690.245 8 192323392.666 3     -1233.132          30.000  
C25  23685344.114 2 123335759.298 1     -1595.940          38.000  
C10  36361810.348 4 189345446.379 3      -364.539          29.000  
C13  36986978.952 4 192600862.933 2      -860.770          33.000  
C 1  37824058.847 9                      -780.161          31.000  
G17  22175296.243 9                      -123.555          14.000  
C 3  36813230.781 4 191696097.10223      -745.122          35.000  
C 2  37505879.970 9                      -747.656          30.000  
C21  24334184.741 4 126714429.67422      -137.301          33.000  
C14  25556535.429 9 133079568.53225      2176.683          28.000  
C 4  38753592.125 9                      -774.062          33.000  
C24  24953502.793 4 129939426.927 2     -3672.174          36.000  
G30  24090336.378 8 126595570.71823     -3448.242          31.000  
C23  25916744.673 8 134955259.24624       865.627          31.000  
G19  22492524.030 4 118199002.58722       651.423          33.000  
> 2021  5 21  6 29 37.0010000  0 20                     
G14  20626356.772 4 108392190.71822     -1271.811          33.000  
G28  20971593.066 4 110206470.227 2       310.964          32.000  
C 7  36160412.761 8 188296747.85523      -796.454          33.000  
G 6  22072069.480 2 115989504.256 1       299.050          36.000  
C11  23510976.006 8 122427799.26023      -487.373          31.000  
C 8  36933928.370 8 192324626.090 4     -1234.355          31.000  
C25  23685650.644 2 123337355.369 1     -1595.576          38.000  
C10  36361878.247 4 189345810.797 2      -363.791          31.000  
C13  36987141.832 4 192601724.255 2      -860.978          34.000  
C 1  37824208.919 9 196960549.01634      -780.734          33.000  
G17  22175320.498 9                      -122.977          33.000  
C 3  36813373.943 4 191696841.89323      -744.530          34.000  
C 2  37506022.032 9                      -740.567          31.000  
C21  24334209.729 4 126714568.10622      -137.914          35.000  
C14  25556121.021 8 133077391.39523      2177.434          32.000  
C 4  38753741.760 9 201800871.13835      -788.693          32.000  
C24  24954207.869 4 129943098.976 2     -3672.077          35.000  
G30  24090991.791 8 126599019.56424     -3449.402          31.000  
C23  25916574.342 8                       862.610          31.000  
G19  22492400.465 4 118198351.78322       651.407          33.000  
> 2021  5 21  6 29 38.0010000  0 20                     
G14  20626598.562 4 108393461.67722     -1271.303          32.000  
G28  20971532.811 4 110206159.223 2       309.588          32.000  
C 7  36160562.379 8 188297544.83123      -797.137          32.000  
G 6  22072012.889 2 115989205.864 1       298.190          36.000  
C11  23511071.354 8 122428287.42224      -487.275          31.000  
C 8  36934166.095 8 192325859.307 3     -1232.892          30.000  
C25  23685957.349 1 123338951.438 1     -1596.001          37.000  
C10  36361949.897 8 189346175.061 3      -363.982          30.000  
C13  36987308.813 4 192602585.241 2      -860.921          33.000  
C 1  37824358.485 8 196961329.02823      -779.681          32.000  
G17  22175344.929 8 116532218.94133      -123.734          34.000  
C 3  36813516.790 4 191697586.04722      -743.665          32.000  
C 2  37506163.868 9 195304405.74734      -737.345          30.000  
C21  24334235.433 4 126714706.74822      -140.074          34.000  
C14  25555701.588 8 133075213.18023      2178.792          31.000  
C 4  38753894.310 9 201801666.02225      -786.818          30.000  
C24  24954912.927 4 129946770.204 3     -3672.173          34.000  
G30  24091647.901 8 126602467.41524     -3446.783          30.000  
C23  25916411.147 8 134953521.88435       863.621          30.000  
G19  22492274.195 8 118197701.16623       650.500          31.000  
> 2021  5 21  6 29 39.0010000  0 20                     
G14  20626840.632 4 108394733.73822     -1273.723          32.000  
G28  20971473.550 4 110205849.084 2       309.440          32.000  
C 7  36160716.778 8 188298342.16823      -796.961          31.000  
G 6  22071956.594 2 115988908.749 1       296.682          36.000  
C11  23511163.439 8 122428776.173 3      -489.034          30.000  
C 8  36934402.580 4 192327093.180 3     -1233.813          30.000  
C25  23686264.106 2 123340548.894 1     -1597.581          36.000  
C10  36362017.499 8 189346539.854 3      -364.104          30.000  
C13  36987475.079 4 192603447.107 2      -862.473          32.000  
C 1  37824508.050 4 196962109.20923      -780.135          31.000  
G17  22175367.178 8 116532342.49722      -123.511          33.000  
C 3  36813659.812 4 191698330.81622      -744.689          32.000  
C 2  37506305.878 8 195305144.90023      -739.702          31.000  
C21  24334263.493 4 126714845.60922      -138.746          33.000  
C14  25555283.236 8 133073035.66823      2176.140          31.000  
C 4  38754047.034 9                      -786.862          29.000  
C24  24955618.056 4 129950442.201 3     -3672.954          33.000  
G30  24092308.253 8 126605916.20124     -3449.249          30.000  
C23  25916246.854 8 134952658.48024       863.480          28.000  
G19  22492149.723 8 118197051.00622       650.255          31.000  
> 2021  5 21  6 29 40.0010000  0 20                     
G14  20627083.085 4 108396006.39922     -1273.492          32.000  
G28  20971411.951 8 110205539.554 2       308.832          32.000  
C 7  36160870.131 4 188299139.542 2      -797.485          31.000  
G 6  22071900.614 2 115988613.298 1       295.005          36.000  
C11  23511258.996 8 122429264.953 3      -489.229          30.000  
C 8  36934639.903 4 192328327.406 3     -1234.073          30.000  
C25  23686571.160 2 123342148.150 1     -1600.987          37.000  
C10  36362092.169 8 189346904.934 3      -365.015          30.000  
C13  36987640.716 4 192604310.025 2      -863.305          32.000  
C 1  37824657.669 8 196962888.89023      -780.089          31.000  
G17  22175392.254 4 116532465.56622      -122.878          34.000  
C 3  36813802.869 9                      -744.701          32.000  
C 2  37506448.603 9                      -751.758          29.000  
C21  24334290.838 4 126714983.879 2      -139.277          33.000  
C14  25554865.059 8 133070858.81423      2176.801          30.000  
C 4  38754199.026 9 201803247.78935      -787.290          29.000  
C24  24956323.690 4 129954115.173 2     -3673.539          33.000  
G30  24092959.024 8 126609366.32023     -3451.038          31.000  
C23  25916078.633 8 134951796.42624       861.954          28.000  
G19  22492025.600 4 118196401.10522       650.416          32.000  
> 2021  5 21  6 29 41.0010000  0 19                     
G14  20627324.770 8 108397280.08423     -1274.521          32.000  
G28  20971352.672 4 110205230.926 2       308.366          33.000  
C 7  36161024.530 8 188299937.328 3      -798.785          31.000  
G 6  22071844.738 2 115988319.283 1       292.208          36.000  
C11  23511353.123 8 122429754.268 3      -489.668          30.000  
C 8  36934873.998 4 192329562.247 2     -1235.059          29.000  
C25  23686878.598 2 123343748.898 1     -1602.215          33.000  
C10  36362159.858 4 189347270.556 3      -365.878          30.000  
C13  36987806.302 4 192605174.020 2      -865.999          32.000  
C 1  37824807.322 8 196963668.50124      -778.793          31.000  
G17  22175414.573 4 116532588.81822      -123.859          34.000  
C 3  36813946.414 8 191699846.59034      -746.486          31.000  
C21  24334317.240 4 126715122.228 2      -138.587          33.000  
C14  25554446.202 8 133068682.76324      2176.337          28.000  
C 4  38754349.604 9                      -773.926          29.000  
C24  24957029.394 4 129957789.088 3     -3673.757          33.000  
G30  24093618.223 8 126612817.41934     -3451.917          30.000  
C23  25915913.938 8 134950935.62624       858.953          28.000  
G19  22491904.181 4 118195751.78122       648.872          32.000  
> 2021  5 21  6 29 42.0010000  0 19                     
G14  20627568.742 8 108398554.61723     -1274.794          32.000  
G28  20971296.378 4 110204923.052 2       307.932          33.000  
C 7  36161177.761 8 188300735.116 3      -797.662          31.000  
G 6  22071789.561 2 115988026.949 1       291.693          35.000  
C11  23511447.860 8 122430243.729 4      -489.413          30.000  
C 8  36935111.757 4 192330797.620 2     -1235.658          29.000  
C25  23687186.525 9                     -1608.764          28.000  
C10  36362229.554 4 189347636.499 3      -367.008          29.000  
C13  36987972.497 4 192606039.069 2      -865.385          32.000  
C 1  37824956.992 8 196964447.86423      -779.129          30.000  
G17  22175439.108 8 116532711.65023      -122.597          33.000  
C 3  36814089.541 8 191700593.22123      -747.633          31.000  
C21  24334343.014 4 126715260.012 2      -137.621          33.000  
C14  25554030.136 4 133066507.41123      2175.337          33.000  
C 4  38754501.333 9                      -782.811          29.000  
C24  24957735.134 4 129961464.030 3     -3674.199          33.000  
G30  24094275.451 8                     -3454.480          28.000  
C23  25915750.028 8                       858.581          28.000  
G19  22491779.220 8 118195102.79423       648.307          31.000  
> 2021  5 21  6 29 43.0010000  0 19                     
G14  20627811.160 4 108399829.484 2     -1275.080          33.000  
G28  20971237.239 4 110204615.502 2       306.828          33.000  
C 7  36161330.049 4 188301532.761 2      -797.870          31.000  
G 6  22071734.086 2 115987735.400 1       291.113          35.000  
C11  23511540.835 8 122430733.357 4      -490.160          30.000  
C 8  36935351.034 4 192332032.904 2     -1234.967          29.000  
C25  23687495.603 9 123346973.56135     -1604.090          27.000  
C10  36362299.128 8 189348002.357 3      -366.340          30.000  
C13  36988138.798 4 192606904.386 2      -865.259          31.000  
C 1  37825106.663 4 196965226.59823      -779.213          31.000  
G17  22175465.248 8 116532834.23225      -122.970          35.000  
C 3  36814232.895 4 191701339.68923      -746.613          31.000  
C21  24334369.224 4 126715397.590 2      -138.926          33.000  
C14  25553611.244 8 133064331.90224      2176.206          30.000  
C 4  38754652.976 9                      -789.160          28.000  
C24  24958440.035 8 129965139.199 4     -3673.710          29.000  
G30  24094933.725 8                     -3452.960          26.000  
C23  25915582.803 8                       858.358          27.000  
G19  22491658.342 8 118194453.839 3       649.232          32.000  
> 2021  5 21  6 29 44.0010000  0 18                     
G14  20628055.865 8 108401105.084 3     -1276.038          32.000  
G28  20971180.648 4 110204308.620 2       306.904          33.000  
C 7  36161482.930 4 188302330.740 3      -798.193          31.000  
G 6  22071678.490 2 115987443.656 1       291.704          37.000  
C11  23511635.642 8 122431223.190 4      -490.293          30.000  
C 8  36935587.188 4 192333268.492 3     -1236.002          28.000  
C25  23687808.259 9                     -1627.616          24.000  
C10  36362371.878 8 189348368.567 3      -367.118          30.000  
C13  36988304.732 8 192607769.479 3      -863.976          31.000  
C 1  37825256.298 8 196966005.63223      -780.192          31.000  
G17  22175487.724 8 116532957.48025      -124.379          33.000  
C 3  36814376.039 8 191702085.95523      -746.100          31.000  
C21  24334393.375 4 126715536.243 3      -139.458          32.000  
C 4  38754803.379 9                      -781.689          27.000  
C24  24959144.483 8                     -3676.474          28.000  
G30  24095584.112 9                     -3453.831          26.000  
C23  25915418.527 8                       857.651          27.000  
G19  22491535.493 8 118193805.324 3       647.040          32.000  
> 2021  5 21  6 29 45.0010000  0 18                     
G14  20628296.974 8 108402381.161 3     -1276.108          31.000  
G28  20971122.067 8 110204002.021 3       306.953          32.000  
C 7  36161636.719 8 188303129.028 5      -798.322          30.000  
G 6  22071622.632 4 115987151.004 2       293.467          32.000  
C11  23511727.046 8 122431712.785 4      -490.006          29.000  
C 8  36935825.104 4 192334503.809 4     -1235.180          28.000  
C25  23688120.077 9                     -1611.982          21.000  
C10  36362446.862 9                      -365.928          29.000  
C13  36988470.631 8 192608633.743 4      -862.384          30.000  
C 1  37825406.004 8 196966785.28225      -779.937          29.000  
G17  22175515.016 9                      -122.293          33.000  
C 3  36814519.410 8 191702831.73424      -746.272          30.000  
C21  24334421.697 8 126715676.661 4      -141.504          31.000  
C 4  38754955.336 9                      -768.311          27.000  
C24  24959850.728 9                     -3674.552          28.000  
G30  24096247.220 9                     -3449.427          26.000  
C23  25915255.001 8                       859.892          26.000  
G19  22491412.120 8 118193156.284 3       649.395          27.000  
> 2021  5 21  6 29 46.0010000  0 17                     
G14  20628539.881 8 108403657.861 3     -1278.222          30.000  
G28  20971061.986 8 110203695.388 3       307.134          31.000  
C 7  36161789.565 8 188303927.839 3      -799.573          29.000  
G 6  22071567.856 9                       293.718          29.000  
C11  23511822.394 8 122432201.114 5      -487.654          27.000  
C 8  36936060.229 4 192335738.455 5     -1234.160          27.000  
C25  23688430.481 9                     -1611.982          15.000  
C10  36362514.133 9                      -364.687          27.000  
C13  36988635.379 8 192609496.612 3      -862.651          30.000  
C 1  37825556.076 9                      -782.806          29.000  
G17  22175531.559 8 116533204.60125      -123.703          31.000  
C 3  36814662.083 9                      -744.592          29.000  
C21  24334448.221 8 126715819.628 3      -144.005          30.000  
C24  24960560.132 8 129976134.49935     -3673.264          29.000  
G30  24096904.029 9                     -3448.160          26.000  
C23  25915090.288 8 134946632.78035       861.794          26.000  
G19  22491287.787 8 118192505.891 3       651.125          28.000  
> 2021  5 21  6 29 47.0010000  0 16                     
G14  20628780.223 8 108404935.358 4     -1276.656          29.000  
G28  20971006.128 8 110203380.20135       306.315          22.000  
C 7  36161944.471 8 188304727.760 5      -799.243          26.000  
G 6  22071510.706 9                       289.247          14.000  
C11  23511911.600 8 122432687.394 5      -484.408          25.000  
C 8  36936299.244 9                     -1232.173          25.000  
C25  23688739.210 9                     -1611.982          12.000  
C10  36362581.368 9                      -362.506          25.000  
C 1  37825706.374 9                      -779.590          27.000  
G17  22175558.589 8                      -121.453          25.000  
C 3  36814805.489 9                      -724.756          27.000  
C21  24334475.828 8 126715966.324 5      -147.932          28.000  
C24  24961260.374 8 129979808.65124     -3675.921          28.000  
G30  24097559.826 9                     -3451.492          22.000  
C23  25914925.191 9                       863.362          24.000  
G19  22491157.538 8                       653.987          28.000  
> 2021  5 21  6 29 48.0010000  0 16                     
G14  20629023.759 4 108406213.942 3     -1278.622          29.000  
G28  20970950.654 9                       306.418          23.000  
C 7  36162095.904 8 188305528.664 5      -801.752          25.000  
G 6  22071455.651 9                       289.247          11.000  
C11  23512005.639 8 122433170.171 5      -480.198          25.000  
C 8  36936535.799 9                     -1231.226          25.000  
C10  36362647.260 9                      -364.199          24.000  
C13  36988968.155 9                      -853.937          17.000  
C 1  37825857.109 9                      -792.481          27.000  
G17  22175581.292 8                      -118.820          27.000  
C 3  36814928.897 9                      -601.270          27.000  
C21  24334508.442 8 126716115.785 4      -151.546          27.000  
C24  24961968.818 8 129983485.09824     -3678.989          29.000  
G30  24098217.943 9                     -3451.492          18.000  
C23  25914757.774 9                       867.047          24.000  
G19  22491035.771 9 118191190.38535       659.264          28.000  
> 2021  5 21  6 29 49.0010000  0 14                     
G14  20629271.866 8 108407493.795 3     -1280.103          29.000  
G28  20970887.275 9                       308.509          24.000  
C 7  36162250.652 8 188306330.727 5      -802.240          25.000  
G 6  22071398.728 9                       289.247          12.000  
C11  23512098.666 8                      -478.160          25.000  
C 8  36936772.965 9                     -1230.258          24.000  
C10  36362718.073 9                      -359.325          24.000  
C13  36989128.871 9                      -853.937          14.000  
G17  22175604.344 8                      -115.433          28.000  
C21  24334535.577 8                      -151.041          26.000  
C24  24962676.407 8 129987165.86125     -3682.580          28.000  
G30  24098878.452 9                     -3451.492          12.000  
C23  25914589.676 9                       877.342          22.000  
G19  22490909.571 8 118190529.68424       662.795          28.000  
> 2021  5 21  6 29 50.0010000  0 13                     
G14  20629507.164 8 108408775.223 4     -1282.496          29.000  
G28  20970832.097 9                       310.632          25.000  
C 7  36162406.553 9                      -803.726          25.000  
G 6  22071342.783 9                       289.247          13.000  
C11  23512193.194 8                      -473.430          25.000  
C 8  36937008.526 9                     -1229.386          23.000  
C10  36362789.445 9                      -360.827          25.000  
C13  36989298.051 9                      -853.937          11.000  
G17  22175623.434 8 116533677.526 5      -110.994          28.000  
C21  24334568.244 9                      -160.268          26.000  
C24  24963379.075 9                     -3679.092          26.000  
C23  25914421.683 9                       880.601          21.000  
G19  22490780.893 8 118189864.91124       666.665          28.000  
> 2021  5 21  6 29 51.0010000  0 13                     
G14  20629757.313 8 108410058.458 4     -1284.627          28.000  
G28  20970774.546 9                       309.652          26.000  
C 7  36162560.499 9                      -805.768          26.000  
G 6  22071288.652 9                       289.247          12.000  
C11  23512281.108 8                      -469.052          25.000  
C 8  36937245.343 9                     -1228.364          23.000  
C10  36362857.937 9                      -362.610          25.000  
C 3  36815384.679 9                      -761.641          27.000  
G17  22175640.221 8 116533786.458 5      -107.794          28.000  
C21  24334596.199 9                      -157.605          24.000  
C24  24964086.280 9                     -3679.092          22.000  
C23  25914253.114 9                       873.494          20.000  
G19  22490662.232 8 118189196.03924       670.170          28.000  
> 2021  5 21  6 29 52.0010000  0 12                     
G14  20630003.466 8 108411342.799 3     -1284.724          28.000  
G28  20970712.546 9                       309.963          27.000  
C 7  36162716.172 8 188308716.14435      -806.610          27.000  
G 6  22071231.799 9                       297.421          22.000  
C11  23512373.437 4 122435065.036 5      -467.812          27.000  
C 8  36937481.898 9                     -1228.800          23.000  
C10  36362927.755 9                      -359.384          24.000  
G17  22175666.205 8 116533891.984 4      -104.696          29.000  
C21  24334624.242 9                      -150.234          23.000  
C24  24964792.560 9                     -3679.092          15.000  
C23  25914085.836 9                       878.972          20.000  
G19  22490534.758 4 118188524.02724       672.732          29.000  
> 2021  5 21  6 29 53.0010000  0 12                     
G14  20630244.907 4 108412627.845 3     -1285.068          27.000  
G28  20970652.814 8 110201527.53035       310.441          26.000  
C 7  36162870.275 8 188309521.87124      -805.878          27.000  
G 6  22071175.732 9                       295.251          24.000  
C11  23512462.049 4 122435532.271 4      -467.736          27.000  
C 8  36937717.668 9                     -1225.980          23.000  
C10  36362998.847 9                      -364.927          24.000  
C13  36989794.841 9                      -861.309          15.000  
G17  22175685.557 4 116533995.549 4      -102.792          29.000  
C21  24334655.408 9                      -144.139          22.000  
C23  25913916.220 9                       875.339          21.000  
G19  22490402.502 8 118187850.38224       673.591          29.000  
> 2021  5 21  6 29 54.0010000  0 13                     
G14  20630493.014 8 108413913.649 4     -1286.003          26.000  
G28  20970595.141 9                       309.792          25.000  
C 7  36163026.437 9                      -808.388          26.000  
G 6  22071118.513 9                       293.627          25.000  
C11  23512553.279 4 122435999.937 5      -468.712          26.000  
C 8  36937951.832 9                     -1231.533          22.000  
C25  23690895.080 9                     -1602.426          17.000  
C10  36363066.781 9                      -352.138          22.000  
C13  36989959.763 9                      -857.869          20.000  
G17  22175705.590 9                      -104.513          27.000  
C21  24334684.672 9                      -164.822          21.000  
C23  25913746.482 9                       884.504          21.000  
G19  22490272.533 9                       672.549          27.000  
> 2021  5 21  6 29 55.0010000  0 13                     
G14  20630736.480 8 108415199.833 4     -1286.328          26.000  
G28  20970536.700 9                       309.354          26.000  
C 7  36163179.754 9                      -804.807          26.000  
G 6  22071060.909 8 115984217.60435       292.082          27.000  
C11  23512642.397 4 122436468.835 5      -470.869          26.000  
C 8  36938187.846 9                     -1238.399          22.000  
C25  23691196.376 9                     -1606.678          25.000  
C10  36363135.989 9                      -352.367          22.000  
C13  36990126.570 9                      -869.547          23.000  
G17  22175722.586 8 116534208.41935      -105.128          28.000  
C21  24334716.833 9                      -146.431          24.000  
C23  25913578.523 9                       878.099          22.000  
G19  22490148.549 9                       670.499          28.000  
> 2021  5 21  6 29 56.0010000  0 13                     
G14  20630979.771 8 108416486.229 4     -1286.976          26.000  
G28  20970477.648 9                       307.082          26.000  
C 7  36163333.596 8                      -803.872          26.000  
G 6  22071004.702 4 115983927.11224       289.470          28.000  
C11  23512733.959 4 122436940.115 4      -473.072          27.000  
C 8  36938424.227 9                     -1230.443          22.000  
C25  23691499.800 9 123367825.03835     -1609.482          26.000  
C10  36363207.168 9                      -369.033          22.000  
C13  36990292.033 9                      -855.849          24.000  
G17  22175743.474 4 116534314.15124      -107.189          28.000  
C21  24334745.294 9                      -154.238          26.000  
C23  25913410.739 9                       871.277          22.000  
G19  22490020.116 8 118185859.05135       666.885          28.000  
> 2021  5 21  6 29 57.0010000  0 14                     
G14  20631225.470 8 108417772.473 5     -1286.712          26.000  
G28  20970418.230 9                       301.850          26.000  
C 7  36163489.409 9                      -801.107          27.000  
G 6  22070949.368 4 115983639.50723       286.005          28.000  
C11  23512824.560 4 122437415.506 4      -476.993          26.000  
C 8  36938659.788 9                     -1229.303          22.000  
C25  23691805.475 8 123369435.83724     -1611.959          27.000  
C10  36363276.184 9                      -362.542          22.000  
C13  36990459.450 9                      -871.593          24.000  
C 3  36816254.188 9                      -758.797          27.000  
G17  22175763.455 4 116534422.77524      -109.311          28.000  
C21  24334774.890 9                      -144.126          24.000  
C23  25913244.439 9                       869.703          21.000  
G19  22489896.272 8 118185194.88724       662.080          28.000  
> 2021  5 21  6 29 58.0010000  0 14                     
G14  20631470.541 4 108419058.479 4     -1286.536          27.000  
G28  20970363.454 9                       302.477          26.000  
C 7  36163643.162 8                      -800.891          28.000  
G 6  22070894.364 4 115983355.32123       282.347          29.000  
C11  23512916.907 4 122437895.049 3      -481.478          28.000  
C 8  36938897.372 9                     -1233.138          23.000  
C25  23692114.815 9                     -1610.205          30.000  
C10  36363345.060 9                      -366.343          24.000  
C13  36990625.733 9                      -875.541          25.000  
C 3  36816394.977 9                      -753.271          27.000  
G17  22175785.704 4 116534534.01824      -111.869          28.000  
C21  24334803.717 9                      -138.947          25.000  
