     3.03           OBSERVATION DATA    M: Mixed            RINEX VERSION / TYPE
RTKCONV demo5 b33c                      20210520 080605 UTC PGM / RUN BY / DATE 
log: C:\Users\Ivan_PolyU_Dktp\Dropbox\HUAWEI Exp\20210517_  COMMENT             
format: RINEX                                               COMMENT             
                                                            MARKER NAME         
                                                            MARKER NUMBER       
                                                            MARKER TYPE         
                                                            OBSERVER / AGENCY   
                                                            REC # / TYPE / VERS 
                                                            ANT # / TYPE        
 -2418160.6943  5385905.1384  2405599.2429                  APPROX POSITION XYZ 
        0.0000        0.0000        0.0000                  ANTENNA: DELTA H/E/N
G    4 C1C L1C D1C S1C                                      SYS / # / OBS TYPES 
C    4 C2I L2I D2I S2I                                      SYS / # / OBS TYPES 
  2021     5    17     2    33   13.0000000     GPS         TIME OF FIRST OBS   
  2021     5    17     2    46   19.0010000     GPS         TIME OF LAST OBS    
G                                                           SYS / PHASE SHIFT   
C                                                           SYS / PHASE SHIFT   
  0                                                         GLONASS SLOT / FRQ #
 C1C    0.000 C1P    0.000 C2C    0.000 C2P    0.000        GLONASS COD/PHS/BIS 
                                                            END OF HEADER       
> 2021  5 17  2 33 13.0000000  0 14                     
C 3  36582024.261 9                      -803.027          28.000  
G21  20682220.080 4 108685814.382 3        -8.980          29.000  
G 7  21167441.938 9                      1375.555          15.000  
C 2  37218049.862 2 193804122.152 1      -834.463          36.000  
C 7  36928599.584 2 192296871.926 2      -654.837          28.000  
G 9  23088854.649 8 121332736.847 3     -2860.673          30.000  
G 8  21155242.059 9                     -2760.431          16.000  
G16  24375294.215 9                     -2567.941          14.000  
C30  22638491.412 2 117884529.314 1       900.961          35.000  
C27  21726596.566 1 113136051.494 1     -1936.968          44.000  
G 1  21642195.014 2 113730449.49012      2243.092          29.000  
G27  23297533.570 9                     -3912.428          18.000  
G 4  23761278.748 9                     -3723.957          18.000  
C28  25406115.761 4 132296233.198 3     -3804.286          27.000  
> 2021  5 17  2 33 14.0000000  0 14                     
C 3  36582177.997 9                      -793.164          28.000  
G21  20682225.498 4 108685824.017 2       -10.448          29.000  
G 7  21167183.714 9                      1375.555          15.000  
C 2  37218210.156 2 193804957.035 1      -835.286          35.000  
C 7  36928725.339 4 192297526.734 3      -655.518          28.000  
G 9  23089399.052 8 121335597.845 3     -2860.760          30.000  
G 8  21155765.775 9                     -2760.594          18.000  
G16  24375785.373 9                     -2567.941          15.000  
C30  22638318.690 2 117883629.027 1       899.916          35.000  
C27  21726968.875 1 113137988.956 1     -1938.434          44.000  
G 1  21641768.652 2 113728206.536 2      2242.913          29.000  
G27  23298277.940 9                     -3915.658          19.000  
G 4  23761987.763 9                     -3723.957          17.000  
C28  25406849.398 4 132300037.958 3     -3805.104          27.000  
> 2021  5 17  2 33 15.0000000  0 14                     
C 3  36582331.633 9                      -795.312          28.000  
G21  20682231.065 8 108685834.851 3       -11.846          30.000  
G 7  21166924.596 9                      1375.555          14.000  
C 2  37218370.907 2 193805792.478 1      -835.689          36.000  
C 7  36928849.790 4 192298181.977 3      -654.979          28.000  
G 9  23089944.995 8 121338459.794 3     -2862.147          30.000  
G 8  21156291.694 9                     -2766.249          18.000  
G16  24376275.375 9                     -2567.941          14.000  
C30  22638146.059 2 117882729.746 1       899.201          35.000  
C27  21727341.149 1 113139927.402 1     -1938.679          44.000  
G 1  21641341.807 2 113725964.591 2      2242.228          29.000  
G27  23299022.096 9                     -3911.251          20.000  
G 4  23762695.143 9                     -3723.957          15.000  
C28  25407580.684 4 132303843.272 3     -3804.848          27.000  
> 2021  5 17  2 33 16.0000000  0 14                     
C 3  36582487.167 9                      -800.732          28.000  
G21  20682226.528 8 108685846.280 3       -11.868          29.000  
G 7  21166665.534 9                      1375.555          13.000  
C 2  37218531.100 2 193806627.890 1      -835.742          36.000  
C 7  36928977.107 4 192298837.208 3      -655.302          28.000  
G 9  23090491.235 8 121341321.887 3     -2862.534          30.000  
G 8  21156818.451 9                     -2765.346          19.000  
G16  24376766.185 9                     -2567.941          14.000  
C30  22637973.455 2 117881830.851 1       898.901          35.000  
C27  21727713.341 1 113141866.284 1     -1939.343          44.000  
G 1  21640918.408 4 113723722.969 3      2241.505          29.000  
G27  23299765.501 9                     -3907.933          20.000  
G 4  23763401.650 9                     -3723.957          13.000  
C28  25408314.815 4 132307648.788 4     -3805.718          27.000  
> 2021  5 17  2 33 17.0000000  0 13                     
C 3  36582643.089 9                      -809.766          28.000  
G21  20682231.780 4 108685858.131 3       -11.790          29.000  
G 7  21166404.549 9                      1377.068          13.000  
C 2  37218691.502 2 193807463.090 1      -835.275          36.000  
C 7  36929102.260 4 192299492.048 3      -654.436          29.000  
G 9  23091036.859 8 121344183.978 3     -2861.405          30.000  
G 8  21157345.622 9                     -2754.997          19.000  
G16  24377257.282 9                     -2570.782          13.000  
C30  22637801.003 2 117880932.140 1       898.785          35.000  
C27  21728085.685 1 113143805.319 1     -1939.047          44.000  
G 1  21640489.377 4 113721481.469 3      2241.768          29.000  
G27  23300514.657 9                     -3928.314          21.000  
C28  25409046.900 4 132311453.985 3     -3804.990          27.000  
> 2021  5 17  2 33 18.0000000  0 13                     
C 3  36582796.668 9                      -808.154          28.000  
G21  20682236.195 8 108685870.777 3       -13.309          29.000  
G 7  21166143.572 9                      1377.068          12.000  
C 2  37218851.717 2 193808298.492 1      -836.115          36.000  
C 7  36929227.609 4 192300147.116 3      -655.527          29.000  
G 9  23091577.480 8 121347046.580 3     -2862.834          30.000  
G 8  21157872.361 9                     -2767.648          21.000  
G16  24377747.519 9                     -2570.782          13.000  
C30  22637628.634 2 117880034.071 1       898.116          35.000  
C27  21728458.051 1 113145745.029 1     -1939.980          44.000  
G 1  21640059.962 8 113719240.497 3      2240.599          30.000  
G27  23301258.599 9                     -3919.311          21.000  
C28  25409779.303 4 132315259.553 3     -3805.699          27.000  
> 2021  5 17  2 33 19.0000000  0 12                     
C 3  36582946.544 9                      -793.408          27.000  
G21  20682237.137 8 108685884.226 3       -13.033          29.000  
C 2  37219012.120 2 193809134.049 1      -835.675          35.000  
C 7  36929352.291 4 192300802.212 3      -655.100          29.000  
G 9  23092120.675 8 121349909.525 4     -2862.669          29.000  
G 8  21158402.839 9                     -2772.187          21.000  
G16  24378237.617 9                     -2570.782          12.000  
C30  22637456.427 2 117879136.547 1       897.795          36.000  
C27  21728830.421 1 113147685.336 1     -1940.668          44.000  
G 1  21639635.813 4 113717000.078 3      2240.465          30.000  
G27  23302003.130 9                     -3908.412          21.000  
C28  25410510.659 4 132319065.312 4     -3805.545          28.000  
> 2021  5 17  2 33 20.0000000  0 13                     
C 3  36583105.166 9                      -803.760          28.000  
G21  20682236.823 8 108685898.271 3       -14.823          29.000  
C 2  37219172.897 2 193809969.421 1      -835.185          36.000  
C 7  36929478.456 4 192301457.119 3      -654.824          28.000  
G 9  23092660.083 8 121352772.619 3     -2863.412          29.000  
G 8  21158930.599 9                     -2768.132          22.000  
G16  24378726.224 9                     -2570.782          10.000  
C30  22637284.459 2 117878239.304 1       897.139          36.000  
C27  21729202.966 1 113149625.900 1     -1940.939          44.000  
G 1  21639207.200 8 113714759.799 3      2240.234          30.000  
G27  23302749.030 9                     -3916.689          21.000  
G 4  23766233.855 9                     -3723.957          13.000  
C28  25411240.322 4 132322871.029 4     -3805.786          27.000  
> 2021  5 17  2 33 21.0000000  0 15                     
C 3  36583257.201 9                      -788.428          27.000  
G21  20682239.607 4 108685912.773 3       -14.367          29.000  
G 7  21165357.418 9                      1377.068          11.000  
C 9  36764467.818 9                     -2158.315          24.000  
C 2  37219332.872 2 193810803.954 1      -834.144          36.000  
C 7  36929603.940 4 192302112.310 3      -654.732          29.000  
G 9  23093202.091 8 121355634.688 3     -2860.727          28.000  
G 8  21159458.686 9                     -2767.041          21.000  
G16  24379212.033 9                     -2570.782          12.000  
C30  22637111.959 2 117877341.655 1       898.230          36.000  
C27  21729575.689 1 113151567.232 1     -1942.113          43.000  
G 1  21638779.378 8 113712519.228 3      2241.989          28.000  
G27  23303493.544 9                     -3917.416          21.000  
G 4  23766943.363 9                     -3722.950          14.000  
C28  25411969.855 9                     -3810.624          26.000  
> 2021  5 17  2 33 22.0000000  0 15                     
C 3  36583412.692 9                      -809.131          29.000  
G21  20682239.546 9                       -15.816          21.000  
G 7  21165096.803 9                      1365.311          13.000  
C 9  36764881.964 9                     -2155.049          26.000  
C 2  37219492.847 2 193811634.64531      -829.805          35.000  
C 7  36929727.388 4 192302768.872 4      -655.878          27.000  
G 9  23093759.416 8 121358493.719 3     -2856.477          29.000  
G 8  21159990.320 9                     -2776.055          20.000  
G16  24379702.943 9                     -2571.359          15.000  
C30  22636939.154 2 117876441.915 1       901.276          36.000  
C27  21729948.609 1 113153509.858 1     -1943.900          44.000  
G 1  21638355.368 9                      2240.006          26.000  
G27  23304239.881 9                     -3917.581          20.000  
G 4  23767649.185 9                     -3722.950          14.000  
C28  25412695.828 9                     -3812.093          26.000  
> 2021  5 17  2 33 23.0000000  0 14                     
C 3  36583567.567 9                      -818.555          27.000  
G21  20682250.059 9                       -15.189          29.000  
G 7  21164840.228 9                      1365.311          12.000  
C 9  36765293.558 9                     -2151.795          25.000  
C 2  37219651.609 2 193812462.05421      -825.462          36.000  
C 7  36929854.203 9                      -661.262          25.000  
G 9  23094302.637 8 121361347.346 4     -2849.735          30.000  
G 8  21160516.248 9                     -2758.304          19.000  
G16  24380191.894 9                     -2571.359          15.000  
C27  21730321.869 1 113155454.407 1     -1945.353          44.000  
G 1  21637933.426 9                      2242.141          25.000  
G27  23304986.327 9                     -3919.156          19.000  
G 4  23768356.992 9                     -3722.950          14.000  
C28  25413425.670 9                     -3819.606          26.000  
> 2021  5 17  2 33 24.0000000  0 15                     
C 3  36583721.866 9                      -799.872          29.000  
G21  20682253.275 9 108685973.90635       -16.926          29.000  
G 7  21164581.328 9                      1365.311          12.000  
C 9  36765706.033 9                     -2151.865          25.000  
C 2  37219809.643 2 193813285.13121      -821.964          36.000  
C 7  36929980.372 9                      -665.631          22.000  
G 9  23094842.573 8 121364216.41934     -2846.009          30.000  
G 8  21161042.873 9                     -2758.304          17.000  
G16  24380675.753 9                     -2586.881          23.000  
C30  22636591.389 2 117874639.58011       907.618          36.000  
C27  21730695.487 1 113157401.158 1     -1948.329          43.000  
G 1  21637502.345 9                      2237.946          24.000  
G27  23305733.297 9                     -3909.679          18.000  
G 4  23769064.651 9                     -3722.950          13.000  
C28  25414155.957 9                     -3823.034          26.000  
> 2021  5 17  2 33 25.0000000  0 15                     
C 3  36583877.064 9                      -826.270          27.000  
G21  20682251.067 8 108685991.17325       -17.635          28.000  
G 7  21164323.305 9                      1365.311          12.000  
C 9  36766119.364 9                     -2147.096          25.000  
C 2  37219967.148 2 193814105.78921      -820.289          39.000  
C 7  36930107.898 9                      -660.607          19.000  
G 9  23095382.736 8 121367062.09823     -2844.738          31.000  
G 8  21161569.438 9                     -2767.688          17.000  
G16  24381160.638 9                     -2594.249          25.000  
C30  22636417.092 2 117873730.808 1       908.817          39.000  
C27  21731069.070 1 113159349.690 1     -1948.346          42.000  
G 1  21637072.009 9                      2241.625          23.000  
G27  23306480.358 9                     -3924.945          17.000  
G 4  23769770.927 9                     -3716.018          14.000  
C28  25414891.314 9                     -3824.380          25.000  
> 2021  5 17  2 33 26.0000000  0 14                     
G21  20682256.826 9                       -19.602          26.000  
G 7  21164063.820 9                      1365.311          13.000  
C 9  36766532.249 9                     -2148.553          26.000  
C 2  37220124.676 2 193814926.73021      -821.637          38.000  
C 7  36930236.323 9                      -660.607          17.000  
G 9  23095924.910 8 121369908.17423     -2845.725          31.000  
G 8  21162094.253 9                     -2767.688          16.000  
G16  24381645.571 9                     -2589.158          26.000  
C30  22636242.607 1 117872822.749 1       907.770          39.000  
C27  21731443.229 2 113161298.436 1     -1948.769          40.000  
G 1  21636646.071 9                      2235.813          22.000  
G27  23307227.537 9                     -3924.945          15.000  
G 4  23770477.460 9                     -3716.018          12.000  
C28  25415625.902 9                     -3798.572          24.000  
> 2021  5 17  2 33 27.0000000  0 14                     
G21  20682262.506 9                       -12.999          26.000  
G 7  21163802.809 9                      1374.002          13.000  
C 9  36766944.270 8 191455097.62535     -2148.056          26.000  
C 2  37220282.434 2 193815747.43921      -820.107          38.000  
C 7  36930363.662 9                      -646.647          16.000  
G 9  23096465.330 9                     -2846.379          25.000  
G 8  21162620.953 9                     -2759.221          16.000  
G16  24382136.485 9                     -2587.898          23.000  
C30  22636068.035 2 117871914.791 1       907.307          36.000  
C27  21731817.479 1 113163247.790 1     -1949.551          43.000  
G 1  21636219.182 9                      2243.822          23.000  
G27  23307976.042 9                     -3924.945          14.000  
G 4  23771185.245 9                     -3716.018          11.000  
C28  25416358.253 9                     -3815.340          21.000  
> 2021  5 17  2 33 28.0000000  0 13                     
G21  20682264.669 9                       -11.323          24.000  
G 7  21163520.739 9                      1358.683          36.000  
C 2  37220442.331 9                      -861.719          27.000  
C 7  36930493.256 9                      -643.905          19.000  
G 9  23097015.897 9                     -2853.510          21.000  
C 8  38643903.585 9                       915.967          34.000  
G 8  21163147.391 9                     -2756.238          17.000  
G16  24382631.190 9                     -2575.647          22.000  
C27  21732190.478 8                     -1948.122          29.000  
G 1  21635793.462 9                      2257.477          21.000  
G27  23308726.397 9                     -3908.200          14.000  
G 4  23771890.670 9                     -3716.018          11.000  
C28  25417094.517 9                     -3819.384          20.000  
> 2021  5 17  2 33 29.0000000  0  9                     
G21  20682262.772 9                        -9.222          34.000  
G 7  21163254.706 9                      1353.275          26.000  
C 1  37515017.816 9                      -823.531          35.000  
C 7  36930621.820 9                      -643.905          18.000  
G 9  23097564.345 9                     -2860.219          28.000  
G 8  21163677.058 9                     -2750.241          18.000  
G16  24383120.154 9                     -2577.127          19.000  
G 1  21635366.224 9                      2263.971          21.000  
G27  23309475.269 9                     -3923.993          15.000  
> 2021  5 17  2 33 30.0000000  0 13                     
C 3  36584649.751 9                      -801.812          34.000  
G21  20682259.635 9 108686032.77132        -9.372          35.000  
G 7  21163001.089 9                      1368.927          25.000  
C 1  37515172.412 9                      -818.803          35.000  
C 7  36930750.908 9                      -648.356          27.000  
G 9  23098097.510 9                     -2865.291          21.000  
G 8  21164206.458 9                     -2760.043          21.000  
G16  24383606.378 9                     -2566.672          20.000  
C27  21732940.122 9 113169091.04635     -1947.073          39.000  
G 1  21634937.150 9                      2253.169          23.000  
G27  23310224.241 9                     -3923.993          14.000  
G 4  23773304.753 9                     -3708.288          11.000  
C28  25418560.942 9                     -3803.781          20.000  
> 2021  5 17  2 33 31.0000000  0 12                     
C 3  36584803.173 9 190506638.71235      -799.373          36.000  
G21  20682260.961 8 108686041.35122        -8.049          37.000  
G 7  21162737.599 9 111210936.28735      1351.406          35.000  
C 1  37515331.279 8 195352134.65532      -818.073          38.000  
C 7  36930875.389 9                      -661.569          38.000  
G 9  23098650.498 9                     -2873.449          18.000  
G 8  21164739.781 9                     -2778.558          37.000  
G16  24384094.744 9                     -2561.958          19.000  
C27  21733313.251 8 113171038.91522     -1947.926          41.000  
G 1  21634500.785 9 113690068.06433      2253.181          37.000  
G27  23310967.908 9                     -3916.441          31.000  
C28  25419290.662 9                     -3815.076          36.000  
> 2021  5 17  2 33 32.0000000  0 12                     
C 3  36584956.547 8 190507438.26822      -798.434          37.000  
G21  20682266.205 4 108686048.93921        -7.083          37.000  
G 7  21162481.666 8 111209586.67723      1348.512          34.000  
C 1  37515489.657 4 195352951.46322      -815.324          36.000  
C 7  36931003.265 9 192309391.48534      -663.647          40.000  
G 9  23099199.788 9                     -2857.520          17.000  
G 8  21165262.436 9 111224203.94535     -2779.173          37.000  
G16  24384583.049 9                     -2561.958          17.000  
C27  21733686.297 4 113172988.05821     -1949.610          39.000  
G 1  21634070.109 8 113687814.15423      2254.955          36.000  
G27  23311717.212 9                     -3920.350          30.000  
C28  25420022.070 9                     -3820.252          33.000  
> 2021  5 17  2 33 33.0000000  0 13                     
C 3  36585109.167 8 190508235.53322      -797.301          34.000  
G21  20682262.920 4 108686054.96021        -4.902          37.000  
G 7  21162223.581 8 111208239.82822      1345.924          34.000  
C10  37458649.045 9                      -784.981          27.000  
C 1  37515645.308 4 195353777.77332      -813.715          36.000  
C 7  36931127.658 9                      -666.714          37.000  
G 9  23099758.129 9                     -2851.589          17.000  
G 8  21165791.366 9 111226984.85125     -2781.474          37.000  
G16  24385074.142 9                     -2561.958          13.000  
C27  21734062.633 4 113174938.63321     -1951.038          39.000  
G 1  21633643.849 8 113685556.78523      2258.729          33.000  
G27  23312463.562 9                     -3922.637          34.000  
C28  25420753.034 9                     -3814.050          30.000  
> 2021  5 17  2 33 34.0000000  0 14                     
C 3  36585263.540 4 190509035.78932      -794.994          34.000  
G21  20682264.081 4 108686059.88021        -3.776          35.000  
G 7  21161968.664 8 111206895.14522      1344.188          33.000  
C10  37458791.238 8 195057769.44334      -785.800          31.000  
C 1  37515800.624 4 195354587.07732      -811.434          36.000  
C 7  36931254.587 9                      -668.610          34.000  
G 9  23100312.959 9                     -2842.429          16.000  
G 8  21166320.731 9                     -2784.077          35.000  
G16  24385568.428 9                     -2596.486          14.000  
C27  21734437.189 4 113176890.59822     -1951.400          37.000  
G 1  21633212.998 9                      2228.130          26.000  
G27  23313203.050 9                     -3925.781          30.000  
G 4  23776186.072 9                     -3730.859          20.000  
C28  25421482.165 9 132376296.77334     -3816.819          34.000  
> 2021  5 17  2 33 35.0000000  0 13                     
C 3  36585416.709 4 190509833.99533      -794.840          34.000  
G21  20682268.578 4 108686063.71522        -2.760          34.000  
G 7  21161711.500 4 111205552.49922      1340.695          33.000  
C10  37458943.182 8 195058556.51923      -789.140          31.000  
C 1  37515955.914 4 195355395.13421      -808.582          35.000  
C 7  36931383.060 9 192311370.76934      -667.327          34.000  
G 9  23100868.447 9                     -2847.512          19.000  
G 8  21166849.455 8 111232549.70334     -2785.528          34.000  
G16  24386062.963 9                     -2596.486          11.000  
C27  21734811.069 4 113178843.16422     -1952.969          37.000  
G27  23313952.402 9                     -3923.350          30.000  
G 4  23776881.546 9                     -3730.859          18.000  
C28  25422215.030 9                     -3800.542          29.000  
> 2021  5 17  2 33 36.0000000  0 14                     
C 3  36585570.616 4 190510634.98932      -793.691          37.000  
G21  20682267.592 4 108686066.65522        -2.252          34.000  
G 7  21161457.067 4 111204211.91022      1339.865          33.000  
C 9  36770678.992 9                     -2157.347          30.000  
C10  37459090.291 8 195059345.31124      -788.584          31.000  
C 7  36931512.789 8 192312039.03722      -667.933          34.000  
G 9  23101417.593 9                     -2845.926          20.000  
C 8  38642505.286 9                       927.810          16.000  
G 8  21167381.839 8 111235334.64723     -2784.960          37.000  
C27  21735186.615 4 113180795.95723     -1952.961          37.000  
G 1  21632361.083 9                      2255.078          18.000  
G27  23314699.825 9                     -3923.415          29.000  
G 4  23777592.454 9                     -3730.859          15.000  
C28  25422951.321 9                     -3814.960          32.000  
> 2021  5 17  2 33 37.0000000  0 16                     
C 3  36585722.481 4 190511425.73133      -792.088          34.000  
G21  20682268.212 4 108686068.14312        -1.117          35.000  
G 7  21161202.128 4 111202873.47022      1337.812          33.000  
C 9  36771088.422 9                     -2158.127          29.000  
C10  37459244.063 8 195060135.94923      -790.995          31.000  
C 1  37516267.588 9                      -805.516          34.000  
C 7  36931640.900 4 192312707.54722      -669.229          35.000  
G 9  23101944.602 9                     -2868.697          30.000  
C 8  38642321.609 9                       927.810          17.000  
G 8  21167910.878 8 111238120.28523     -2787.102          34.000  
C30  22634347.823 9                       884.277          34.000  
C27  21735561.925 4 113182749.08822     -1952.874          37.000  
G 1  21631938.465 9                      2250.349          18.000  
G27  23315445.704 9                     -3919.960          20.000  
G 4  23778302.351 9                     -3730.859          13.000  
C28  25423685.761 9                     -3824.114          25.000  
> 2021  5 17  2 33 38.0000000  0 15                     
C 3  36585875.244 9                      -812.988          28.000  
G 7  21160948.367 4 111201537.03922      1336.092          32.000  
C 9  36771508.052 9                     -2157.923          29.000  
C10  37459398.279 8 195060928.36923      -794.391          30.000  
C 1  37516419.173 9                      -802.618          34.000  
C 2  37222061.501 9                      -861.828          29.000  
C 7  36931769.587 9                      -684.008          26.000  
G 9  23102474.496 9 121404408.10335     -2873.135          31.000  
G 8  21168438.555 8 111240907.66925     -2788.796          24.000  
C30  22634194.349 9 117862157.74534       889.694          37.000  
C27  21735937.319 4 113184703.19022     -1954.507          32.000  
G 1  21631504.238 9                      2275.944          20.000  
G27  23316194.244 9                     -3919.960          17.000  
G 4  23779002.777 9                     -3730.859          12.000  
C28  25424420.066 9                     -3824.114          21.000  
> 2021  5 17  2 33 39.0000000  0 12                     
G21  20682270.158 9                        -6.250          33.000  
G 7  21160699.122 8 111200202.24724      1334.644          32.000  
C 9  36771943.256 9                     -2158.743          27.000  
C10  37459550.864 8 195061721.86424      -792.745          30.000  
C 2  37222230.721 9                      -863.721          29.000  
C 7  36931898.164 9                      -669.809          35.000  
G 9  23103023.113 9                     -2873.909          25.000  
G 8  21168969.975 9                     -2787.441          34.000  
C30  22634039.460 9 117861269.27925       883.884          33.000  
C27  21736312.612 8 113186657.80315     -1954.906          26.000  
G27  23316941.101 9                     -3919.960          13.000  
C28  25425154.703 9                     -3824.114          16.000  
> 2021  5 17  2 33 40.0000000  0 12                     
G21  20682268.256 9 108686052.65933        -2.120          34.000  
G 7  21160442.904 8 111198868.31323      1333.247          32.000  
C 9  36772379.730 9                     -2158.104          26.000  
C10  37459700.717 8 195062516.033 4      -795.142          31.000  
C 1  37516731.371 9                      -799.523          34.000  
C 2  37222422.097 9                      -962.402          29.000  
C 7  36932027.091 9                      -674.500          22.000  
G 9  23103618.187 9                     -2874.046          30.000  
G 8  21169498.246 9                     -2788.063          21.000  
C27  21736687.783 9                     -1954.578          25.000  
C13  39395583.842 9                       781.739          21.000  
C28  25425885.727 9                     -3809.358          15.000  
> 2021  5 17  2 33 41.0000000  0 10                     
G 7  21160187.420 4 111197535.24022      1334.617          32.000  
C10  37459854.846 8 195063310.502 3      -792.529          31.000  
C 1  37516884.981 9                      -801.319          35.000  
C 7  36932166.697 9                      -667.204          21.000  
G 9  23104185.594 9                     -2866.378          29.000  
G 1  21630248.704 9                      2253.229          24.000  
G 8  21170029.325 9                     -2788.063          18.000  
C30  22633730.448 9                       898.372          26.000  
C 4  38456482.702 9                      -800.830          28.000  
G 4  23781114.301 9                     -3730.859          13.000  
> 2021  5 17  2 33 42.0000000  0 12                     
G21  20682270.633 9                        -1.855          33.000  
G 7  21159934.780 4 111196201.96822      1334.570          32.000  
C10  37460005.900 8 195064104.177 3      -792.636          31.000  
C 2  37222742.723 9                      -802.641          30.000  
C 7  36932294.485 9                      -659.681          21.000  
G 9  23104740.773 9                     -2862.675          22.000  
G 1  21629836.844 9                      2227.351          23.000  
G 8  21170560.192 9                     -2788.063          15.000  
C30  22633564.570 9                       879.549          25.000  
C27  21737444.699 9                     -1957.130          26.000  
G27  23319198.919 9                     -3881.411          14.000  
G 4  23781821.606 9                     -3730.859          13.000  
> 2021  5 17  2 33 43.0000000  0 10                     
G21  20682274.533 9 108686085.55734        -4.145          32.000  
G 7  21159679.950 4 111194868.539 2      1333.957          32.000  
C10  37460159.348 8 195064897.105 4      -792.153          29.000  
C 2  37222896.826 9                      -819.727          26.000  
C 7  36932422.321 9                      -668.475          20.000  
G 9  23105288.300 9                     -2895.479          22.000  
G 1  21629415.181 9                      2227.351          22.000  
G 8  21171092.018 9                     -2788.063          13.000  
C27  21737818.692 9                     -1955.419          34.000  
G27  23319952.454 9                     -3877.941          19.000  
> 2021  5 17  2 33 44.0000000  0  7                     
G 7  21159426.765 4 111193534.758 2      1334.485          33.000  
C10  37460309.765 8 195065689.070 3      -790.835          29.000  
C 7  36932548.643 9                      -636.814          21.000  
G 9  23105826.303 9                     -2903.290          34.000  
G 1  21628984.723 9                      2227.351          20.000  
G 8  21171620.999 9                     -2774.073          12.000  
C27  21738192.685 8 113196451.03932     -1956.862          38.000  
> 2021  5 17  2 33 45.0000000  0  8                     
G21  20682276.741 9                       -11.155          34.000  
G 7  21159171.490 4 111192198.405 2      1339.218          34.000  
C10  37460465.238 8 195066477.552 3      -784.744          32.000  
C 7  36932677.639 9                      -640.844          21.000  
G 9  23106376.530 9                     -2896.494          23.000  
G 1  21628542.993 9                      2256.281          20.000  
G 8  21172148.624 9                     -2754.634          16.000  
C27  21738568.471 4 113198407.48622     -1955.593          37.000  
> 2021  5 17  2 33 46.0000000  0 12                     
C 3  36587094.605 9                      -795.453          33.000  
G 7  21158917.511 4 111190856.536 2      1345.582          34.000  
C10  37460613.346 8 195067259.331 4      -779.084          30.000  
C 1  37517660.032 9                      -828.289          28.000  
C 7  36932801.200 9                      -662.401          29.000  
G 9  23106928.550 9                     -2886.132          22.000  
G 1  21628085.666 9                      2256.281          22.000  
G 8  21172676.384 9                     -2787.387          21.000  
C16  38210375.750 9                     -2441.365          32.000  
C27  21738942.992 4 113200362.95322     -1954.262          37.000  
C 6  37777735.045 9                     -2362.873          25.000  
G 4  23784639.690 9                     -3734.044          19.000  
> 2021  5 17  2 33 47.0000000  0 12                     
C 3  36587244.860 9 190519353.03534      -802.954          37.000  
G21  20682286.635 9                       -25.647          35.000  
G 7  21158660.766 4 111189507.801 2      1353.085          34.000  
C 9  36775237.936 9                     -2161.572          36.000  
C10  37460763.719 8 195068032.455 3      -768.618          31.000  
C 1  37517812.865 9                      -827.757          34.000  
C 7  36932926.715 9 192319409.43434      -655.287          33.000  
G 9  23107471.575 9                     -2876.388          22.000  
G 1  21627652.604 9                      2256.281          21.000  
G 8  21173210.317 9                     -2776.099          27.000  
C27  21739316.889 4 113202317.26122     -1953.473          38.000  
G 4  23785340.696 9                     -3721.227          20.000  
> 2021  5 17  2 33 48.0000000  0 13                     
C 3  36587399.552 8 190520157.84322      -805.695          37.000  
G21  20682284.144 9 108686177.11133       -29.863          35.000  
G 7  21158402.686 4 111188151.939 3      1360.327          33.000  
C 9  36775650.533 9 191500431.54333     -2161.465          34.000  
C10  37460908.159 8 195068796.926 3      -760.865          32.000  
C 1  37517974.721 9 195365896.07632      -833.269          34.000  
C 7  36933047.968 8 192320063.78322      -652.317          35.000  
G 9  23108013.945 9                     -2876.668          22.000  
G 1  21627223.564 9                      2231.745          20.000  
G 8  21173739.338 8 111268744.95733     -2772.085          36.000  
C16  38211303.352 9                     -2450.994          29.000  
C27  21739694.141 2 113204269.96021     -1951.636          38.000  
G 4  23786033.417 9                     -3721.227          22.000  
> 2021  5 17  2 33 49.0000000  0 14                     
C 3  36587555.343 4 190520964.34521      -806.737          38.000  
G21  20682284.925 8 108686208.43721       -31.676          36.000  
G 7  21158143.899 4 111186792.641 3      1358.911          32.000  
C 9  36776075.140 8 191502594.85522     -2163.713          33.000  
C10  37461053.816 8 195069556.934 3      -760.341          32.000  
C 1  37518132.549 4 195366730.62522      -835.440          35.000  
C 7  36933173.971 4 192320715.55421      -651.829          36.000  
G 9  23108558.928 9                     -2868.423          20.000  
G 1  21626796.038 9                      2231.745          20.000  
G 8  21174268.856 4 111271516.63221     -2772.108          36.000  
C16  38211785.728 9 198978763.84035     -2452.182          29.000  
C30  22632313.926 9 117852366.39634       885.377          32.000  
C27  21740069.011 2 113206222.15721     -1952.610          38.000  
G 4  23786741.010 9                     -3721.227          19.000  
> 2021  5 17  2 33 50.0000000  0 15                     
C 3  36587711.662 2 190521771.01821      -806.945          38.000  
G21  20682294.727 4 108686240.56421       -32.798          36.000  
G 7  21157884.990 4 111185433.714 2      1357.933          32.000  
C 9  36776482.459 8 191504758.34422     -2164.160          33.000  
C10  37461201.262 8 195070316.765 3      -759.426          31.000  
C 1  37518293.021 4 195367565.35122      -834.840          35.000  
C 7  36933298.736 4 192321367.26821      -651.610          36.000  
G 9  23109105.050 9                     -2867.505          18.000  
G 1  21626365.973 9                      2231.745          20.000  
G 8  21174796.546 4 111274288.59921     -2772.152          37.000  
C16  38212265.142 9 198981216.88624     -2453.711          29.000  
C30  22632137.522 8 117851480.84323       885.167          31.000  
C27  21740443.057 2 113208174.80421     -1952.860          38.000  
G 4  23787447.788 9                     -3721.227          16.000  
G30  24213062.651 9                      2515.415          16.000  
> 2021  5 17  2 33 51.0000000  0 15                     
C 3  36587866.476 2 190522577.80521      -806.448          38.000  
G21  20682303.880 2 108686273.47021       -33.458          36.000  
G 7  21157626.544 4 111184075.362 2      1357.818          32.000  
C 9  36776901.714 4 191506922.06922     -2163.621          34.000  
C10  37461346.666 8 195071076.707 3      -759.091          31.000  
C 1  37518454.567 4 195368406.27931      -835.244          35.000  
C 7  36933424.705 2 192322019.05821      -651.428          36.000  
G 9  23109649.899 9                     -2867.211          18.000  
G 1  21625936.558 9                      2231.745          20.000  
G 8  21175328.263 4 111277060.97221     -2772.682          37.000  
C16  38212723.629 9 198983669.96923     -2452.897          29.000  
C30  22631966.470 8 117850595.81123       885.316          31.000  
C27  21740818.494 1 113210127.54511     -1953.145          39.000  
G 4  23788157.780 9                     -3721.227          13.000  
G30  24212595.265 9                      2504.062          15.000  
> 2021  5 17  2 33 52.0000000  0 16                     
C 3  36588021.024 2 190523384.90521      -807.203          38.000  
G21  20682310.533 2 108686307.27721       -33.994          36.000  
G 7  21157368.058 4 111182717.785 2      1356.024          32.000  
C 9  36777315.554 4 191509086.25321     -2163.908          34.000  
C10  37461492.571 4 195071836.875 2      -759.976          31.000  
C 1  37518614.869 4 195369241.46531      -835.402          35.000  
C 2  37224315.686 9                      -868.018          27.000  
C 7  36933550.460 2 192322671.06221      -652.070          36.000  
G 9  23110197.076 9                     -2873.413          17.000  
G 1  21625509.739 9                      2231.745          19.000  
G 8  21175853.340 2 111279833.88521     -2773.460          37.000  
C16  38213195.784 8 198986123.37723     -2453.434          29.000  
C30  22631798.900 8 117849711.47723       884.315          31.000  
C27  21741193.900 1 113212081.509 1     -1954.516          39.000  
G 4  23788868.017 9                     -3721.227          10.000  
G30  24212119.428 9                      2516.880          16.000  
> 2021  5 17  2 33 53.0000000  0 17                     
C 3  36588176.265 1 190524192.43421      -807.900          38.000  
G21  20682316.702 2 108686342.16621       -35.375          36.000  
G 7  21157109.516 4 111181360.937 2      1357.338          32.000  
C 9  36777733.173 4 191511251.03022     -2165.394          34.000  
C10  37461637.888 8 195072597.387 4      -760.155          31.000  
C 1  37518774.704 4 195370074.09322      -835.588          35.000  
C 7  36933677.825 2 192323323.41721      -652.287          36.000  
G 9  23110744.590 9                     -2872.491          18.000  
G 1  21625079.151 9                      2231.745          19.000  
G 8  21176382.623 2 111282607.43821     -2773.398          37.000  
C16  38213662.848 8 198988577.36123     -2454.233          29.000  
C30  22631627.849 8 117848828.00524       883.535          30.000  
G16  24394863.160 9                     -2575.089          21.000  
C27  21741569.097 1 113214036.299 1     -1954.986          39.000  
C 8  38639475.357 8 201205855.96235       896.487          26.000  
C 5  39404048.245 9                      -817.641          29.000  
G30  24211649.694 9                      2516.880          16.000  
> 2021  5 17  2 33 54.0000000  0 17                     
C 3  36588331.384 1 190525010.76331      -807.313          38.000  
G21  20682323.259 2 108686377.50721       -35.579          36.000  
G 7  21156851.301 4 111180004.428 2      1357.433          32.000  
C 9  36778148.095 4 191513415.64922     -2164.037          34.000  
C10  37461785.556 8 195073357.593 3      -759.599          31.000  
C 1  37518935.028 4 195370908.55032      -835.398          35.000  
C 7  36933802.742 2 192323975.47321      -651.759          36.000  
G 9  23111293.849 9                     -2867.502          18.000  
G 1  21624650.813 9                      2231.745          21.000  
G 8  21176910.496 2 111285381.07021     -2773.317          37.000  
C16  38214138.240 4 198991031.17823     -2454.095          29.000  
C30  22631461.365 8 117847944.77724       882.919          30.000  
G16  24395371.328 9                     -2575.089          22.000  
C27  21741944.491 1 113215991.362 1     -1955.351          39.000  
G 4  23790284.425 9                     -3721.227          11.000  
C 5  39404203.142 9                      -827.539          29.000  
G30  24211175.956 9                      2511.021          17.000  
> 2021  5 17  2 33 55.0000000  0 16                     
C 3  36588486.203 2 190525817.86321      -806.828          38.000  
G21  20682329.811 2 108686413.21621       -36.024          36.000  
G 7  21156591.227 4 111178648.158 2      1355.953          32.000  
C 9  36778564.239 4 191515580.21222     -2164.067          34.000  
C10  37461932.251 8 195074117.513 3      -760.301          31.000  
C 1  37519095.474 2 195371743.74321      -834.933          35.000  
C 7  36933927.991 2 192324627.26221      -651.552          36.000  
G 9  23111840.547 9                     -2864.886          17.000  
G 8  21177437.270 2 111288154.20511     -2773.298          37.000  
C16  38214604.296 4 198993484.77123     -2453.618          29.000  
C30  22631289.398 8 117847061.67323       883.128          30.000  
G16  24395860.893 9                     -2575.089          24.000  
C27  21742319.858 1 113217946.583 1     -1955.479          39.000  
G 4  23790994.008 9                     -3721.227          10.000  
C 5  39404363.540 9                      -834.529          29.000  
G30  24210696.917 9                      2511.021          16.000  
> 2021  5 17  2 33 56.0000000  0 17                     
C 3  36588641.056 1 190526624.71121      -807.044          38.000  
G21  20682336.625 2 108686449.28221       -36.606          36.000  
G 7  21156333.714 8 111177292.008 2      1355.553          32.000  
C 9  36778979.978 4 191517744.65722     -2164.340          34.000  
C10  37462072.752 8 195074877.061 2      -759.488          31.000  
C 1  37519255.985 2 195372578.73221      -835.695          35.000  
C 7  36934052.969 2 192325278.67621      -651.157          36.000  
G 9  23112384.675 9                     -2866.402          17.000  
G 8  21177964.904 2 111290927.829 1     -2773.767          37.000  
C16  38215071.128 4 198995938.16223     -2453.335          29.000  
C30  22631125.968 4 117846178.73423       882.832          29.000  
G16  24396352.632 9                     -2575.089          24.000  
C27  21742695.391 1 113219901.974 1     -1955.627          39.000  
C 8  38638963.424 4 201203190.32223       897.059          27.000  
C28  25437766.442 9                     -3808.920          25.000  
C 5  39404524.247 9                      -831.100          29.000  
G30  24210221.058 9                      2511.021          18.000  
> 2021  5 17  2 33 57.0000000  0 17                     
C 3  36588795.931 1 190527431.39521      -806.499          38.000  
G21  20682343.972 2 108686485.85021       -36.626          37.000  
G 7  21156077.340 8 111175936.174 2      1354.920          32.000  
C 9  36779395.620 2 191519909.08421     -2164.277          35.000  
C10  37462221.227 8 195075636.425 3      -759.496          31.000  
C 1  37519416.143 2 195373413.49821      -834.827          35.000  
C 7  36934177.943 2 192325929.902 1      -651.271          36.000  
G 9  23112930.963 9                     -2871.997          17.000  
G 8  21178492.794 1 111293701.509 1     -2773.356          37.000  
C16  38215545.609 4 198998391.48422     -2453.101          29.000  
C30  22630961.194 4 117845296.03323       882.970          29.000  
G16  24396840.160 9                     -2575.089          24.000  
C27  21743070.915 1 113221857.653 1     -1956.058          39.000  
C 8  38638792.552 4 201202293.12823       897.424          27.000  
C28  25438500.101 9                     -3808.099          26.000  
C 5  39404686.761 9                      -839.502          29.000  
G30  24209747.350 9                      2511.021          18.000  
> 2021  5 17  2 33 58.0000000  0 16                     
C 3  36588950.872 1 190528237.01531      -806.455          38.000  
G21  20682350.939 2 108686522.93621       -37.139          37.000  
G 7  21155818.963 4 111174580.664 2      1354.299          32.000  
C 9  36779811.524 4 191522073.537 2     -2164.625          34.000  
C10  37462368.079 8 195076395.595 3      -759.041          31.000  
C 1  37519576.384 2 195374248.22732      -834.819          35.000  
C 2  37225256.043 9                      -817.236          27.000  
C 7  36934303.079 2 192326580.935 1      -651.264          36.000  
G 9  23113479.362 9                     -2871.997          16.000  
G 8  21179020.554 2 111296475.355 1     -2773.789          37.000  
C16  38216015.111 4 199000844.29612     -2453.767          29.000  
C30  22630794.339 4 117844413.22113       882.305          29.000  
C27  21743446.632 1 113223813.656 1     -1956.146          39.000  
C28  25439227.536 9                     -3808.288          27.000  
C 5  39404844.359 9                      -830.205          29.000  
G30  24209271.099 9                      2511.021          18.000  
> 2021  5 17  2 33 59.0000000  0 18                     
C 3  36589105.978 1 190529043.82421      -807.532          38.000  
G21  20682357.932 2 108686560.86821       -38.804          37.000  
G 7  21155559.832 4 111173225.707 2      1353.924          32.000  
C 9  36780227.232 2 191524238.299 1     -2165.471          35.000  
C10  37462516.393 8 195077154.819 3      -759.340          31.000  
C 1  37519736.569 2 195375082.14321      -835.332          35.000  
C 7  36934427.983 2 192327232.062 1      -651.733          36.000  
G 9  23114026.627 9                     -2871.997          13.000  
G 1  21622535.821 9                      2226.545          26.000  
G 8  21179548.467 2 111299249.627 1     -2775.274          37.000  
C16  38216486.572 8 199003297.740 3     -2453.351          29.000  
C30  22630626.809 4 117843531.473 3       880.993          28.000  
G16  24397815.566 9                     -2571.708          26.000  
C27  21743822.409 1 113225770.275 1     -1957.328          40.000  
C 8  38638448.638 4 201200510.01133       896.396          27.000  
C28  25439961.217 8 132472509.32235     -3807.874          27.000  
C 5  39405003.688 9                      -832.377          29.000  
G30  24208796.195 9                      2511.021          19.000  
> 2021  5 17  2 34  0.0000000  0 18                     
C 3  36589261.027 1 190529852.63231      -807.468          38.000  
G21  20682365.161 2 108686599.41121       -38.693          37.000  
G 7  21155305.307 4 111171871.237 2      1353.986          33.000  
C 9  36780643.241 2 191526403.203 1     -2164.810          34.000  
C10  37462659.572 8 195077914.054 3      -760.226          31.000  
C 1  37519896.958 2 195375918.08221      -835.377          35.000  
C 7  36934552.870 2 192327883.119 1      -650.887          36.000  
G 9  23114574.154 9                     -2871.997          14.000  
G 1  21622114.136 9                      2225.502          26.000  
G 8  21180076.157 2 111302024.092 1     -2774.657          37.000  
C16  38216957.637 4 199005751.337 3     -2453.575          29.000  
C30  22630466.842 4 117842650.109 3       881.126          27.000  
G16  24398302.314 9                     -2571.592          26.000  
C27  21744198.317 1 113227727.325 1     -1957.367          40.000  
C 8  38638277.299 4 201199613.08224       897.138          27.000  
C28  25440695.016 8 132476317.16324     -3808.228          27.000  
C 5  39405163.100 9 205192994.74135      -831.790          29.000  
G30  24208319.534 9                      2511.021          19.000  
> 2021  5 17  2 34  1.0000000  0 18                     
C 3  36589416.103 1 190530659.54221      -806.739          38.000  
G21  20682372.499 2 108686638.71721       -39.701          36.000  
G 7  21155045.521 4 111170517.301 2      1354.349          33.000  
C 9  36781059.302 2 191528568.338 1     -2165.041          34.000  
C10  37462807.502 4 195078673.239 2      -758.210          31.000  
C 1  37520057.199 2 195376752.04031      -834.055          35.000  
C 7  36934677.892 2 192328534.226 1      -650.792          36.000  
G 9  23115117.885 9                     -2864.586          16.000  
G 1  21621693.032 9                      2225.967          26.000  
G 8  21180604.140 2 111304798.969 1     -2775.131          37.000  
C16  38217427.497 4 199008205.113 3     -2453.905          29.000  
C30  22630299.831 4 117841769.338 4       880.710          27.000  
G16  24398790.685 9                     -2573.528          25.000  
C27  21744574.256 1 113229684.901 1     -1957.613          40.000  
C 8  38638107.862 4 201198716.37824       896.722          28.000  
C28  25441428.584 8 132480125.17024     -3808.017          27.000  
C 5  39405322.761 9                      -832.959          29.000  
G30  24207844.665 9                      2511.021          18.000  
> 2021  5 17  2 34  2.0000000  0 18                     
C 3  36589570.852 1 190531466.20321      -806.703          38.000  
G21  20682380.220 2 108686678.36721       -39.988          37.000  
G 7  21154788.454 4 111169163.577 2      1353.160          33.000  
C 9  36781475.001 2 191530733.333 1     -2164.688          34.000  
C10  37462952.295 8 195079432.185 3      -760.086          31.000  
C 1  37520217.471 2 195377586.86721      -835.205          35.000  
C 7  36934802.914 2 192329185.005 1      -650.498          36.000  
G 9  23115665.351 9                     -2876.165          19.000  
G 1  21621269.533 8 113620536.74235      2226.078          26.000  
G 8  21181132.437 1 111307573.790 1     -2774.765          36.000  
C16  38217899.874 4 199010658.619 2     -2453.257          29.000  
C30  22630137.055 8 117840888.605 5       880.645          26.000  
G16  24399277.485 9                     -2573.312          25.000  
C27  21744950.256 1 113231642.686 1     -1958.116          40.000  
C 8  38637937.735 4 201197819.42123       897.112          28.000  
C28  25442155.612 4 132483932.98323     -3807.918          27.000  
C 5  39405482.282 9 205194656.12535      -832.046          29.000  
G30  24207369.622 9                      2511.021          18.000  
> 2021  5 17  2 34  3.0000000  0 18                     
C 3  36589725.814 1 190532272.94821      -807.049          38.000  
G21  20682387.807 2 108686718.74921       -40.968          37.000  
G 7  21154531.277 4 111167810.308 2      1352.399          33.000  
C 9  36781891.019 4 191532898.559 2     -2165.711          34.000  
C10  37463096.992 4 195080191.026 2      -759.187          31.000  
C 1  37520377.825 2 195378421.69721      -835.059          35.000  
C 7  36934927.845 2 192329835.780 1      -651.274          36.000  
G 9  23116213.519 9                     -2869.059          21.000  
G 1  21620846.247 8 113618310.79324      2224.967          26.000  
G 8  21181660.192 2 111310348.960 1     -2775.835          36.000  
C16  38218370.105 4 199013112.288 3     -2453.862          29.000  
C30  22629968.765 9                       878.998          25.000  
G16  24399765.428 9                     -2572.840          25.000  
C27  21745326.469 1 113233600.936 1     -1958.728          40.000  
C 8  38637766.461 4 201196922.64523       896.554          28.000  
C28  25442887.173 4 132487740.94023     -3808.305          27.000  
C 5  39405642.340 9                      -836.523          29.000  
G30  24206894.248 9                      2511.021          19.000  
> 2021  5 17  2 34  4.0000000  0 18                     
C 3  36589880.907 1 190533079.65421      -806.658          38.000  
G21  20682395.559 2 108686759.71821       -40.905          37.000  
G 7  21154274.047 4 111166457.478 2      1352.598          33.000  
C 9  36782306.993 4 191535063.878 2     -2165.408          34.000  
C10  37463243.631 8 195080949.734 3      -757.629          31.000  
C 1  37520538.249 2 195379256.53231      -834.807          35.000  
C 7  36935052.649 2 192330486.402 1      -650.589          36.000  
G 9  23116759.205 9                     -2869.721          23.000  
G 1  21620418.036 4 113616085.15024      2225.873          25.000  
G 8  21182188.192 2 111313124.276 1     -2775.345          36.000  
C16  38218843.242 4 199015565.949 3     -2453.438          29.000  
C30  22629801.601 9                       879.317          23.000  
G16  24400253.711 9                     -2570.097          25.000  
C27  21745702.722 1 113235559.584 1     -1958.670          40.000  
C 8  38637595.301 4 201196025.33113       896.969          28.000  
C28  25443619.899 4 132491548.89624     -3807.849          27.000  
C 5  39405801.259 9                      -830.094          29.000  
G30  24206416.487 9                      2511.021          19.000  
> 2021  5 17  2 34  5.0000000  0 18                     
C 3  36590035.791 2 190533886.09321      -806.355          38.000  
G21  20682403.342 2 108686801.04521       -41.590          37.000  
G 7  21154016.979 4 111165104.742 2      1352.681          33.000  
C 9  36782722.692 2 191537229.052 1     -2165.422          34.000  
C10  37463388.542 4 195081708.190 3      -758.445          31.000  
C 1  37520698.564 2 195380091.10921      -834.996          35.000  
C 7  36935177.509 2 192331136.734 1      -650.254          36.000  
G 9  23117302.325 9                     -2869.231          24.000  
G 1  21619990.990 9                      2225.633          25.000  
G 8  21182715.948 2 111315899.594 1     -2774.819          35.000  
C16  38219314.275 4 199018019.445 3     -2453.617          29.000  
C30  22629635.318 9                       882.737          21.000  
G16  24400743.935 9                     -2571.542          24.000  
C27  21746079.093 1 113237518.397 1     -1959.249          40.000  
C 8  38637422.701 2 201195128.351 3       896.734          28.000  
G27  23336452.276 9                     -3913.053          22.000  
C28  25444352.006 4 132495356.72524     -3808.035          27.000  
C 5  39405961.155 9                      -831.665          29.000  
> 2021  5 17  2 34  6.0000000  0 19                     
C 3  36590190.487 1 190534692.41321      -806.482          38.000  
G21  20682411.430 2 108686842.88921       -42.406          37.000  
G 7  21153759.864 4 111163752.387 2      1351.756          33.000  
C 9  36783138.417 2 191539394.183 2     -2165.649          34.000  
C10  37463534.133 8 195082466.397 3      -758.292          31.000  
C 1  37520858.775 2 195380925.51721      -834.308          35.000  
C 7  36935302.523 2 192331786.799 1      -650.182          36.000  
G 9  23117845.345 9                     -2873.638          25.000  
G 1  21619565.375 9                      2225.016          25.000  
G 8  21183243.939 2 111318675.011 1     -2775.622          35.000  
C16  38219785.671 4 199020472.821 3     -2453.279          29.000  
C30  22629471.997 9                       870.126          19.000  
G16  24401230.085 9                     -2571.797          23.000  
C27  21746455.333 1 113239477.496 1     -1959.522          39.000  
C 8  38637250.842 4 201194231.223 3       897.133          28.000  
G27  23337196.026 9                     -3913.053          21.000  
G 4  23798782.197 9                     -3720.128          12.000  
C28  25445084.029 4 132499164.47424     -3808.383          27.000  
C 5  39406120.689 9                      -830.355          29.000  
> 2021  5 17  2 34  7.0000000  0 21                     
C 3  36590345.554 1 190535498.712 1      -806.519          38.000  
G21  20682419.985 2 108686885.318 1       -42.941          37.000  
G 7  21153502.708 2 111162400.418 1      1351.372          33.000  
C 9  36783554.469 4 191541559.469 2     -2165.799          34.000  
C10  37463679.729 8 195083224.511 3      -758.603          31.000  
C 1  37521019.147 2 195381760.93631      -834.344          35.000  
C 2  37226729.378 9                      -958.594          27.000  
C 7  36935427.213 2 192332436.790 1      -650.129          36.000  
G 9  23118389.727 9                     -2873.009          26.000  
G 1  21619144.236 9                      2225.200          26.000  
G 8  21183771.791 2 111321450.686 1     -2775.459          35.000  
C16  38220258.306 4 199022926.266 3     -2453.697          29.000  
C 6  37787434.151 9                     -2391.000          13.000  
C30  22629305.757 9                       880.857          19.000  
G16  24401720.323 9                     -2573.015          23.000  
C27  21746831.913 1 113241436.995 1     -1959.640          39.000  
C 8  38637081.854 4 201193334.194 3       897.009          28.000  
G27  23337940.474 9                     -3913.053          21.000  
G 4  23799492.657 9                     -3720.128          11.000  
C28  25445816.790 4 132502972.19024     -3807.775          27.000  
C 5  39406280.830 9                      -832.053          29.000  
> 2021  5 17  2 34  8.0000000  0 20                     
C 3  36590500.385 1 190536305.269 1      -806.803          38.000  
G21  20682428.636 2 108686928.635 1       -43.578          37.000  
G 7  21153245.959 4 111161049.178 2      1350.363          34.000  
C 9  36783970.465 4 191543725.120 2     -2165.787          33.000  
C10  37463825.622 4 195083982.759 3      -757.859          31.000  
C 1  37521179.370 4 195382595.62322      -834.893          35.000  
C 7  36935552.318 2 192333086.968 1      -650.376          36.000  
G 9  23118931.874 9                     -2875.271          26.000  
G 1  21618722.015 9                      2225.050          26.000  
G 8  21184299.970 2 111324226.829 1     -2776.412          34.000  
