     3.03           OBSERVATION DATA    M: Mixed            RINEX VERSION / TYPE
RTKCONV demo5 b33c                      20210520 075819 UTC PGM / RUN BY / DATE 
log: C:\Users\Ivan_PolyU_Dktp\Dropbox\HUAWEI Exp\20210517_  COMMENT             
format: RINEX                                               COMMENT             
                                                            MARKER NAME         
                                                            MARKER NUMBER       
                                                            MARKER TYPE         
                                                            OBSERVER / AGENCY   
                                                            REC # / TYPE / VERS 
                                                            ANT # / TYPE        
        0.0000        0.0000        0.0000                  APPROX POSITION XYZ 
        0.0000        0.0000        0.0000                  ANTENNA: DELTA H/E/N
G   12 C1C L1C D1C S1C C2L L2L D2L S2L C2S L2S D2S S2S      SYS / # / OBS TYPES 
R    8 C1C L1C D1C S1C C2C L2C D2C S2C                      SYS / # / OBS TYPES 
E    8 C1C L1C D1C S1C C7Q L7Q D7Q S7Q                      SYS / # / OBS TYPES 
J    8 C1C L1C D1C S1C C2L L2L D2L S2L                      SYS / # / OBS TYPES 
S    4 C1C L1C D1C S1C                                      SYS / # / OBS TYPES 
C    8 C2I L2I D2I S2I C7I L7I D7I S7I                      SYS / # / OBS TYPES 
  2021     5    17     2    33   13.0050000     GPS         TIME OF FIRST OBS   
  2021     5    17     2    46   19.0050000     GPS         TIME OF LAST OBS    
G                                                           SYS / PHASE SHIFT   
R                                                           SYS / PHASE SHIFT   
E                                                           SYS / PHASE SHIFT   
J                                                           SYS / PHASE SHIFT   
S                                                           SYS / PHASE SHIFT   
C                                                           SYS / PHASE SHIFT   
  0                                                         GLONASS SLOT / FRQ #
 C1C    0.000 C1P    0.000 C2C    0.000 C2P    0.000        GLONASS COD/PHS/BIS 
                                                            END OF HEADER       
> 2021  5 17  2 33 13.0050000  0 23                     
G21  22049460.634 9                       327.015          24.000                                                                                                                                  
G27  24664769.281 9                     -3587.061          21.000                                                                                                                                  
G 1  23009427.719 8                      2573.797          27.000                                                                                                                                  
G 8  22522476.848 8                     -2432.885          27.000    22522479.457 9                     -1895.886          22.000                                                                  
C 7  38295838.220 8                      -327.601          26.000    38295819.793 4                      -253.103          26.000  
C30  24005732.255 1 125004154.038 3      1227.635          37.000                                                                  
C27  23093832.712 1 120255658.426 2     -1609.895          38.000                                                                  
C37  24427059.200 4                     -1641.048          27.000                                                                  
R19  20833884.423 8                     -1675.765          26.000    20833878.717 4                     -1303.716          30.000  
R15  24761250.217 9                     -2928.395          26.000                                                                  
G 4  25128493.651 9                     -3386.467          18.000                                                                                                                                  
G 9  24456093.344 2 128517615.344 5     -2530.973          33.000    24456086.504 2                     -1971.537          29.000                                                                  
C10  38823021.981 9                      -440.465          15.000                                                                  
E13  26764305.762 4 140647353.258 5     -2308.640          31.000    26764302.806 8                     -1768.843          25.000  
S28  38785860.053 1 203820998.499 2      -518.782          40.000  
E21  26124490.569 8                      -488.719          24.000    26124482.053 8                      -375.327          25.000  
E18  21295550.802 9                      2080.269          21.000    21295537.094 9                      1597.223          16.000  
J 3  40100962.799 8                     -1348.234          25.000    40100952.517 9                     -1048.659          15.000  
C16                                                                  39562145.052 9                     -1643.744          18.000  
C 9                                                                  38128379.659 9                     -1425.675          22.000  
R18                                                                  23642387.427 9                     -3444.530          11.000  
R 9                                                                  22545924.386 9                      1668.588          22.000  
J 7                                                                  37980474.783 9                      -402.490          16.000  
> 2021  5 17  2 33 14.0050000  0 22                     
G21  22049399.172 9                       322.846          24.000                                                                                                                                  
G27  24665453.547 9                     -3577.014          22.000                                                                                                                                  
G 1  23008939.781 8                      2572.607          28.000                                                                                                                                  
G 8  22522938.730 8                     -2433.146          27.000    22522941.942 9                     -1897.313          22.000                                                                  
C 7  38295902.097 8                      -326.723          25.000    38295882.797 4                      -253.140          25.000  
C30  24005496.528 1 125002926.501 3      1226.904          37.000                                                                  
C27  23094141.878 1 120257268.590 3     -1609.756          37.000                                                                  
C37  24427375.055 4                     -1641.913          27.000                                                                  
R19  20834197.124 9                     -1676.590          26.000    20834192.034 4                     -1304.974          30.000  
R15  24761797.515 9                     -2928.558          26.000                                                                  
G 4  25129137.704 9                     -3393.748          18.000                                                                                                                                  
G 9  24456574.762 2 128520146.066 5     -2530.032          33.000    24456568.121 2                     -1971.744          29.000                                                                  
C10  38823105.249 9                      -440.465          15.000                                                                  
E13  26764745.693 2 140649662.192 5     -2309.032          31.000    26764742.463 4                     -1768.343          25.000  
S28  38785958.776 1 203821517.370 2      -518.853          40.000  
E21  26124585.397 8                      -489.141          24.000    26124574.662 8                      -374.443          25.000  
E18  21295154.241 9                      2069.095          22.000    21295144.006 9                      1580.284          16.000  
J 3  40101219.901 8                     -1350.199          25.000    40101210.943 9                     -1045.006          16.000  
C16                                                                  39562552.729 9                     -1641.852          19.000  
C 9                                                                  38128729.958 9                     -1418.788          22.000  
R 9                                                                  22545528.516 9                      1665.310          24.000  
J 7                                                                  37980573.249 9                      -399.439          16.000  
> 2021  5 17  2 33 15.0050000  0 22                     
G21  22049336.275 9                       321.541          24.000                                                                                                                                  
G27  24666136.825 9                     -3580.287          22.000                                                                                                                                  
G 1  23008452.540 8                      2571.993          28.000                                                                                                                                  
G 8  22523400.732 8                     -2433.290          27.000    22523404.386 9                     -1894.988          21.000                                                                  
C 7  38295966.064 8                      -327.979          25.000    38295945.175 4                      -253.443          25.000  
C30  24005260.903 1 125001699.237 3      1226.499          37.000                                                                  
C27  23094450.877 1 120258879.115 3     -1611.199          37.000                                                                  
C37  24427693.717 4                     -1641.423          28.000                                                                  
R19  20834508.413 9                     -1677.427          27.000    20834505.526 4                     -1304.352          30.000  
R15  24762348.218 9                     -2930.719          27.000                                                                  
G 4  25129782.261 9                     -3383.461          16.000                                                                                                                                  
G 9  24457056.112 2 128522676.981 4     -2531.295          33.000    24457049.821 2                     -1972.332          29.000                                                                  
C10  38823190.746 9                      -440.465          14.000                                                                  
E13  26765185.595 4                     -2308.936          31.000    26765182.176 8                     -1769.022          25.000  
S28  38786057.565 1 203822035.990 2      -518.726          40.000  
E21  26124678.175 8                      -489.327          24.000    26124667.935 8                      -375.507          25.000  
E18  21294759.395 9                      2072.643          22.000    21294748.536 9                      1596.037          16.000  
J 3  40101475.984 8                     -1350.257          25.000    40101468.752 9                     -1065.672          17.000  
C16                                                                  39562962.883 9                     -1630.375          19.000  
C 9                                                                  38129081.176 9                     -1416.099          22.000  
R 9                                                                  22545131.148 9                      1665.895          24.000  
J 7                                                                  37980673.202 9                      -419.403          16.000  
> 2021  5 17  2 33 16.0050000  0 21                     
G21  22049273.579 9                       319.274          24.000                                                                                                                                  
G27  24666820.309 9                     -3582.156          23.000                                                                                                                                  
G 1  23007963.500 8                      2572.100          28.000                                                                                                                                  
G 8  22523863.510 8                     -2433.182          26.000    22523865.065 9                     -1894.137          21.000                                                                  
C 7  38296027.650 8                      -328.274          25.000    38296006.879 4                      -252.365          25.000  
C30  24005025.519 1 125000472.394 3      1225.903          37.000                                                                  
C27  23094760.071 1 120260489.988 3     -1611.124          37.000                                                                  
C37  24428009.626 4                     -1641.855          28.000                                                                  
R19  20834823.018 9                     -1678.544          27.000    20834819.245 4                     -1306.084          30.000  
R15  24762897.714 9                     -2931.008          27.000                                                                  
G 4  25130427.005 9                     -3381.111          16.000                                                                                                                                  
G 9  24457537.612 2 128525208.084 5     -2530.721          33.000    24457531.556 2                     -1972.479          29.000                                                                  
E13  26765624.991 4                     -2309.713          30.000    26765621.390 8                     -1769.657          25.000  
S28  38786156.205 1 203822554.590 2      -519.066          40.000  
E21  26124772.302 9                      -489.902          24.000    26124760.688 8                      -374.617          25.000  
E18  21294366.548 9                      2083.515          22.000    21294354.679 9                      1582.019          16.000  
J 3  40101732.423 8                     -1348.183          25.000    40101727.403 9                     -1053.923          17.000  
C16                                                                  39563370.593 9                     -1640.173          18.000  
C 9                                                                  38129433.541 9                     -1418.531          22.000  
R 9                                                                  22544734.478 9                      1665.623          25.000  
J 7                                                                  37980772.434 9                      -398.031          16.000  
> 2021  5 17  2 33 17.0050000  0 21                     
G21  22049211.569 9                       318.315          24.000                                                                                                                                  
G27  24667504.815 9                     -3575.755          24.000                                                                                                                                  
G 1  23007476.107 8                      2572.262          28.000                                                                                                                                  
G 8  22524324.396 8                     -2433.657          26.000    22524327.385 9                     -1890.836          21.000                                                                  
C 7  38296090.619 8                      -326.168          26.000    38296070.258 4                      -252.685          25.000  
C30  24004789.828 1 124999245.722 3      1226.058          37.000                                                                  
C27  23095069.490 1 120262101.120 3     -1611.385          37.000                                                                  
C37  24428326.863 4                     -1641.811          29.000                                                                  
R19  20835135.057 8                     -1678.786          26.000    20835133.095 4                     -1305.379          30.000  
R15  24763444.331 9                     -2930.177          27.000                                                                  
G 4  25131070.881 9                     -3395.296          14.000                                                                                                                                  
G 9  24458019.101 2 128527739.244 5     -2530.898          33.000    24458013.362 2                     -1972.544          29.000                                                                  
E13  26766065.111 4                     -2309.216          31.000    26766060.801 8                     -1770.688          25.000  
S28  38786254.933 1 203823073.035 2      -518.532          40.000  
E21  26124866.007 8                      -489.971          24.000    26124853.963 8                      -374.895          25.000  
E18  21293972.773 9                      2076.644          22.000    21293959.395 9                      1592.871          15.000  
J 3  40101988.722 8                     -1348.191          25.000    40101984.041 9                     -1043.322          17.000  
C16                                                                  39563777.299 9                     -1641.229          18.000  
C 9                                                                  38129784.185 9                     -1409.282          22.000  
R 9                                                                  22544337.483 9                      1665.095          25.000  
J 7                                                                  37980870.277 9                      -402.842          16.000  
> 2021  5 17  2 33 18.0050000  0 21                     
G21  22049151.406 9                       324.634          24.000                                                                                                                                  
G27  24668189.386 9                     -3583.067          25.000                                                                                                                                  
G 1  23006987.958 8                      2571.660          29.000                                                                                                                                  
G 8  22524784.635 8                     -2433.728          26.000    22524791.009 9                     -1897.381          21.000                                                                  
C 7  38296155.163 8                      -327.306          25.000    38296133.457 4                      -253.275          25.000  
C30  24004554.306 1 124998019.469 3      1225.857          37.000                                                                  
C27  23095378.789 1 120263712.662 3     -1611.828          37.000                                                                  
C37  24428644.419 8                     -1642.073          29.000                                                                  
R19  20835448.811 9                     -1680.038          27.000    20835447.007 4                     -1306.119          30.000  
R15  24763991.553 8                     -2930.192          27.000                                                                  
G 4  25131717.756 9                     -3388.673          14.000                                                                                                                                  
G 9  24458500.489 2 128530270.658 4     -2531.187          33.000    24458495.233 2                     -1972.784          29.000                                                                  
E13  26766504.724 2 140658900.550 5     -2310.152          30.000    26766500.636 4                     -1769.573          25.000  
S28  38786353.668 1 203823591.480 2      -518.420          41.000  
E21  26124959.244 8                      -489.026          23.000    26124946.569 8                      -373.836          25.000  
E18  21293582.224 9                      2073.461          22.000    21293566.576 9                      1589.088          14.000  
J 3  40102245.018 8                     -1347.261          25.000    40102240.181 9                     -1050.925          17.000  
C16                                                                  39564186.191 9                     -1652.302          19.000  
C 9                                                                  38130137.460 9                     -1414.884          22.000  
R 9                                                                  22543939.870 9                      1666.866          25.000  
J 7                                                                  37980969.287 9                      -400.470          16.000  
> 2021  5 17  2 33 19.0050000  0 21                     
G21  22049088.768 9                       316.629          24.000                                                                                                                                  
G27  24668872.498 8                     -3582.171          26.000                                                                                                                                  
G 1  23006500.821 8                      2571.945          29.000                                                                                                                                  
G 8  22525249.124 8                     -2434.507          26.000    22525253.593 9                     -1890.068          21.000                                                                  
C 7  38296216.808 8                      -328.862          25.000    38296196.686 4                      -251.905          25.000  
C30  24004318.914 1 124996793.589 3      1225.454          37.000                                                                  
C27  23095688.269 1 120265324.569 3     -1612.008          37.000                                                                  
C37  24428956.199 4                     -1643.020          29.000                                                                  
R19  20835761.559 9                     -1680.740          27.000    20835761.196 4                     -1307.196          30.000  
R15  24764539.607 8                     -2931.338          27.000                                                                  
G 4  25132366.218 9                     -3403.291          11.000                                                                                                                                  
G 9  24458982.098 2 128532802.273 5     -2532.096          33.000    24458977.065 2                     -1972.842          29.000                                                                  
E13  26766944.519 4 140661210.853 5     -2310.377          30.000    26766939.322 8                     -1772.805          25.000  
S28  38786452.418 1 203824109.932 2      -518.586          41.000  
E21  26125050.830 8                      -489.716          23.000    26125040.375 4                      -375.654          25.000  
E18  21293188.153 9                      2067.234          23.000    21293171.671 9                      1582.282          15.000  
J 3  40102499.844 8                     -1347.258          26.000    40102498.765 9                     -1050.647          17.000  
C16                                                                  39564596.249 9                     -1647.539          19.000  
C 9                                                                  38130489.189 9                     -1421.475          21.000  
R 9                                                                  22543544.091 9                      1665.065          26.000  
J 7                                                                  37981067.894 9                      -395.301          16.000  
> 2021  5 17  2 33 20.0050000  0 21                     
G21  22049027.063 9                       319.385          24.000                                                                                                                                  
G27  24669557.211 8                     -3582.085          26.000                                                                                                                                  
G 1  23006014.295 8                      2571.250          29.000                                                                                                                                  
G 8  22525709.879 8                     -2434.477          26.000    22525716.563 9                     -1904.353          21.000                                                                  
C 7  38296278.986 8                      -326.336          25.000    38296259.058 8                      -254.188          25.000  
C30  24004083.621 1 124995568.172 3      1224.904          37.000                                                                  
C27  23095997.884 1 120266936.997 3     -1612.962          37.000                                                                  
C37  24429268.735 4                     -1643.491          30.000                                                                  
R19  20836074.758 8                     -1681.810          26.000    20836075.650 4                     -1308.314          30.000  
R15  24765086.628 8                     -2931.906          28.000                                                                  
G 4  25133010.321 9                     -3397.538          10.000                                                                                                                                  
G 9  24459463.682 2 128535334.127 4     -2531.954          32.000    24459458.889 2                     -1972.887          29.000                                                                  
E13  26767384.334 4                     -2310.946          30.000    26767379.273 8                     -1771.144          25.000  
S28  38786551.121 1 203824628.496 2      -518.746          41.000  
E21  26125144.606 9                      -493.020          22.000    26125133.792 8                      -376.201          25.000  
E18  21292794.667 9                      2072.064          23.000    21292778.065 9                      1572.578          15.000  
J 3  40102758.023 8                     -1349.112          25.000    40102756.806 9                     -1056.651          17.000  
C16                                                                  39565006.218 9                     -1649.939          19.000  
C 9                                                                  38130840.574 9                     -1419.613          21.000  
R 9                                                                  22543145.781 9                      1666.340          25.000  
J 7                                                                  37981165.412 9                      -408.437          15.000  
> 2021  5 17  2 33 21.0050000  0 20                     
G21  22048967.435 9                       314.794          26.000                                                                                                                                  
G27  24670236.139 8                     -3584.868          25.000                                                                                                                                  
G 1  23005525.383 8                      2572.757          29.000                                                                                                                                  
G 8  22526175.082 8                     -2435.135          27.000    22526180.136 9                     -1899.649          21.000                                                                  
C 7  38296340.360 8                      -327.493          25.000    38296320.746 8                      -253.791          25.000  
C30  24003848.198 1 124994342.356 3      1226.477          38.000                                                                  
C27  23096307.753 1 120268550.175 3     -1613.506          40.000                                                                  
C37  24429582.237 8                     -1644.118          28.000                                                                  
R19  20836389.778 8                     -1682.401          26.000    20836390.226 4                     -1308.195          30.000  
R15  24765636.165 8                     -2932.014          27.000                                                                  
G 9  24459945.291 2 128537865.146 4     -2529.875          33.000    24459940.393 2                     -1971.063          29.000                                                                  
E13  26767823.526 4                     -2313.206          29.000    26767819.286 8                     -1772.469          25.000  
S28  38786649.672 1 203825146.439 2      -517.674          41.000  
E21  26125237.122 9                      -491.687          22.000    26125226.328 8                      -376.894          25.000  
E18  21292401.061 9                      2071.876          21.000    21292385.685 9                      1579.382          14.000  
J 3  40103015.379 8                     -1349.638          25.000    40103013.981 9                     -1053.777          18.000  
C16                                                                  39565414.601 9                     -1643.181          17.000  
C 9                                                                  38131192.674 9                     -1412.402          20.000  
R 9                                                                  22542747.204 9                      1658.739          25.000  
J 7                                                                  37981265.504 9                      -403.490          16.000  
> 2021  5 17  2 33 22.0050000  0 22                     
G21  22048908.833 8                       315.488          27.000                                                                                                                                  
G27  24670914.750 9                     -3590.069          24.000                                                                                                                                  
G 1  23005029.125 8                      2574.094          28.000                                                                                                                                  
G 8  22526643.602 8                     -2438.857          28.000    22526644.743 9                     -1899.204          22.000                                                                  
C 7  38296401.907 8                      -330.474          25.000    38296384.366 8                      -254.561          24.000  
C30  24003612.374 1 124993114.528 3      1229.541          38.000                                                                  
C27  23096617.815 1 120270164.788 2     -1616.064          39.000                                                                  
C37  24429900.497 8                     -1644.984          27.000                                                                  
R19  20836705.321 8                     -1684.678          26.000    20836704.826 4                     -1311.045          30.000  
R15  24766183.776 9                     -2929.337          26.000                                                                  
G 4  25134301.378 9                     -3388.871          11.000                                                                                                                                  
G 9  24460426.263 2                     -2525.855          32.000    24460421.703 2                     -1967.347          30.000                                                                  
E13  26768263.583 2                     -2318.104          28.000    26768258.888 8                     -1777.388          24.000  
S28  38786747.896 1 203825661.839 2      -513.351          41.000  
E18  21292009.816 9                      2053.421          19.000    21291991.153 9                      1582.448          15.000  
J 3  40103274.041 9                     -1351.993          25.000    40103272.023 9                     -1052.414          18.000  
E21                                                                  26125320.004 8                      -379.977          25.000  
C16                                                                  39565821.712 9                     -1645.497          15.000  
C 9                                                                  38131544.369 9                     -1410.633          20.000  
C 8                                                                  40011613.514 8                       951.011          25.000  
R 9                                                                  22542347.685 9                      1665.902          24.000  
J 7                                                                  37981363.250 9                      -395.822          19.000  
> 2021  5 17  2 33 23.0050000  0 21                     
G21  22048847.121 9                       306.978          25.000                                                                                                                                  
G27  24671597.808 9                     -3595.257          24.000                                                                                                                                  
G 1  23004539.200 8                      2575.822          27.000                                                                                                                                  
G 8  22527107.383 8                     -2441.824          29.000    22527110.901 9                     -1907.205          23.000                                                                  
C 7  38296463.845 8                      -332.671          25.000    38296449.053 8                      -258.302          24.000  
C30  24003375.812 1 124991883.360 3      1233.296          35.000                                                                  
C27  23096928.419 1 120271781.569 2     -1617.929          42.000                                                                  
C37  24430216.378 9                     -1650.805          26.000                                                                  
R19  20837021.771 8                     -1688.489          26.000    20837019.940 4                     -1312.901          31.000  
G 4  25134949.761 9                     -3388.871          12.000                                                                                                                                  
G 9  24460906.499 2 128542915.982 5     -2520.001          33.000    24460901.785 2                     -1963.853          30.000                                                                  
E13  26768704.762 4                     -2323.591          29.000    26768701.178 8                     -1781.827          25.000  
S28  38786845.179 1 203826173.087 2      -509.146          39.000  
E18  21291617.082 9                      2072.359          16.000    21291600.290 9                      1582.448          14.000  
J 3  40103530.282 9                     -1356.199          23.000    40103528.321 9                     -1038.639          18.000  
E21                                                                  26125415.464 8                      -381.834          25.000  
C16                                                                  39566229.500 9                     -1637.623          14.000  
C 9                                                                  38131895.233 9                     -1411.193          22.000  
C 8                                                                  40011376.564 8                       951.463          26.000  
R 9                                                                  22541949.317 9                      1666.460          24.000  
J 7                                                                  37981461.386 9                      -398.108          19.000  
> 2021  5 17  2 33 24.0050000  0 22                     
G21  22048784.937 9                       305.453          23.000                                                                                                                                  
G27  24672281.002 9                     -3603.300          22.000                                                                                                                                  
G 1  23004049.552 9                      2576.769          26.000                                                                                                                                  
G 8  22527574.523 8                     -2444.900          29.000    22527575.700 9                     -1890.277          22.000                                                                  
C 7  38296529.640 9                      -339.970          24.000    38296513.589 9                      -261.781          22.000  
C30  24003138.623 1 124990648.568 3      1236.705          37.000                                                                  
C27  23097239.483 1 120273400.355 2     -1619.523          43.000                                                                  
C37  24430534.252 9                     -1650.563          25.000                                                                  
R19  20837339.042 9                     -1689.203          26.000    20837335.615 2  86695536.72214     -1314.237          33.000  
G16  25747181.581 9                     -2257.962          22.000                                                                                                                                  
G 4  25135592.648 9                     -3402.816          12.000                                                                                                                                  
G 9  24461385.485 2 128545433.745 5     -2515.285          32.000    24461380.906 2                     -1959.968          29.000                                                                  
E13  26769146.843 2                     -2327.587          29.000    26769143.119 8                     -1784.688          26.000  
S28  38786941.616 1 203826679.991 4      -505.167          36.000  
E21  26125514.083 8                      -502.499          27.000    26125512.163 4                      -384.723          28.000  
E18  21291223.877 9                      2065.932          15.000    21291204.872 9                      1594.175          14.000  
J 3  40103789.862 9                     -1359.053          22.000    40103788.029 9                     -1057.946          20.000  
C16                                                                  39566635.910 9                     -1637.094          13.000  
C 9                                                                  38132244.593 9                     -1400.730          23.000  
C 8                                                                  40011138.250 4                       952.691          28.000  
R 9                                                                  22541550.271 9                      1660.166          23.000  
J 7                                                                  37981559.948 9                      -401.184          22.000  
> 2021  5 17  2 33 25.0050000  0 21                     
G21  22048726.037 9                       311.277          22.000                                                                                                                                  
G27  24672965.853 9                     -3599.021          20.000                                                                                                                                  
G 1  23003560.833 9                      2590.424          24.000                                                                                                                                  
G 8  22528039.216 9                     -2441.021          25.000    22528043.614 9                     -1920.167          19.000                                                                  
C 7  38296595.596 9                      -342.433          21.000    38296577.781 9                      -253.303          20.000  
C 9  38132605.552 9                     -1817.833          25.000    38132594.409 9                     -1410.953          24.000  
C30  24002901.105 1 124989411.743 2      1236.490          40.000                                                                  
C27  23097551.073 1 120275020.759 2     -1620.504          40.000                                                                  
R19  20837655.273 8                     -1691.229          25.000    20837651.569 2  86696851.382 4     -1315.368          34.000  
G 4  25136238.094 9                     -3384.798          12.000                                                                                                                                  
G 9  24461863.620 2 128547948.207 5     -2514.686          32.000    24461859.603 2                     -1958.836          29.000                                                                  
E13  26769589.657 2                     -2329.335          31.000    26769586.730 4                     -1784.389          27.000  
S28  38787037.526 2 203827184.015 5      -503.258          31.000  
E21  26125608.237 8                      -504.437          27.000    26125606.859 4                      -385.644          29.000  
E18  21290830.311 9                      2056.000          16.000    21290809.960 9                      1580.089          12.000  
J 2  39994846.917 9                       580.111          21.000                                                                  
J 3  40104048.938 9                     -1356.289          24.000    40104047.055 9                     -1058.375          20.000  
C16                                                                  39567043.467 9                     -1637.094          12.000  
C 8                                                                  40010901.672 4                       952.688          32.000  
R 9                                                                  22541151.689 9                      1664.715          22.000  
J 7                                                                  37981658.485 9                      -413.302          23.000  
> 2021  5 17  2 33 26.0050000  0 19                     
G21  22048668.333 9                       313.261          25.000                                                                                                                                  
G27  24673649.384 9                     -3588.636          18.000                                                                                                                                  
G 1  23003071.272 9                      2575.153          22.000                                                                                                                                  
G 8  22528509.687 9                     -2443.510          21.000    22528511.660 9                     -1913.892          15.000                                                                  
C 7  38296658.474 9                      -327.756          19.000    38296642.890 9                      -252.372          17.000  
C 9  38132952.315 8                     -1820.474          27.000    38132943.663 9                     -1406.600          24.000  
C30  24002663.598 1 124988175.544 2      1235.479          40.000                                                                  
C27  23097862.442 1 120276641.317 4     -1621.490          35.000                                                                  
R19  20837971.621 8                     -1691.296          24.000    20837967.762 2  86698166.596 4     -1315.291          33.000  
G 9  24462342.022 2                     -2516.161          30.000    24462338.284 2                     -1960.268          28.000                                                                  
E26  24488616.206 9                       443.573          27.000    24488616.737 8                       339.932          25.000  
E13  26770032.378 4                     -2329.712          32.000    26770029.600 4                     -1784.165          27.000  
S28  38787133.491 8                      -503.926          29.000  
E21  26125705.630 8                      -503.025          29.000    26125702.109 4                      -383.778          30.000  
E18  21290439.015 9                      2049.304          15.000                                                                  
J 2  39994728.858 9                       580.111          24.000    39994712.847 9                       452.810          23.000  
J 3  40104307.198 9                     -1355.597          31.000    40104307.102 9                     -1068.182          21.000  
R 9                                                                  22540752.722 9                      1644.645          21.000  
J 7                                                                  37981756.042 9                      -404.242          24.000  
> 2021  5 17  2 33 27.0050000  0 21                     
G21  22048611.404 9                       292.570          25.000                                                                                                                                  
G27  24674333.905 9                     -3598.491          18.000                                                                                                                                  
G 1  23002583.273 9                      2580.783          23.000    23002582.607 9                      2007.758          18.000                                                                  
G 8  22528976.505 9                     -2428.031          17.000    22528978.367 9                     -1895.515          13.000                                                                  
C 7  38296723.159 9                      -332.290          16.000    38296705.448 9                      -248.937          16.000  
C 9  38133301.606 8                     -1819.237          27.000    38133293.537 9                     -1413.530          24.000  
C30  24002426.213 1 124986939.518 2      1235.930          38.000                                                                  
C27  23098174.103 1 120278262.886 4     -1622.828          39.000                                                                  
R16  21645547.001 9                      -458.356          11.000                                                                  
R19  20838288.429 9                     -1693.642          24.000    20838284.094 2  86699482.727 3     -1316.768          34.000  
G 4  25137523.525 9                     -3368.110          12.000                                                                                                                                  
G 9  24462820.937 8                     -2513.418          24.000    24462816.927 4                     -1958.828          27.000                                                                  
E13  26770475.035 4 140679783.791 5     -2329.916          32.000    26770473.489 4                     -1785.888          28.000  
S28  38787230.649 8                      -502.246          35.000  
E21  26125798.849 8                      -502.806          29.000    26125797.209 4                      -386.367          29.000  
E18  21290045.993 9                      2058.542          15.000                                                                  
J 2  39994615.813 9                       578.444          26.000                                                                  
J 3  40104567.690 8                     -1355.627          27.000    40104565.532 9                     -1057.972          22.000  
C 8                                                                  40010427.008 8                       955.568          28.000  
R 9                                                                  22540353.262 9                      1661.590          21.000  
J 7                                                                  37981855.332 9                      -399.964          22.000  
> 2021  5 17  2 33 28.0050000  0 23                     
G 7  22529798.112 9                      1689.966          39.000                                                                    22529782.998 9                      1316.003          31.000  
G21  22048550.955 9                       321.658          25.000                                                                                                                                  
G27  24675021.691 9                     -3582.766          19.000                                                                                                                                  
G 1  23002095.246 9                      2577.777          22.000    23002092.171 9                      2013.293          17.000                                                                  
G 8  22529445.928 9                     -2424.637          17.000    22529440.535 9                     -1885.946          13.000                                                                  
C 7  38296788.125 9                      -337.015          16.000                                                                  
C 9  38133650.854 9                     -1814.117          25.000    38133644.054 9                     -1407.829          22.000  
C30  24002189.235 8                      1228.897          27.000                                                                  
C27  23098485.714 8                     -1621.973          29.000                                                                  
R16  21645632.590 9                      -453.860          18.000                                                                  
R19  20838604.434 9                     -1687.468          21.000    20838601.147 9                     -1327.034          20.000  
G 4  25138168.122 9                     -3369.574          14.000                                                                                                                                  
G 9  24463305.315 9                     -2548.027          21.000    24463295.824 9                     -1965.214          23.000                                                                  
S28  38787326.080 9                      -471.143          27.000  
E21  26125896.828 9                      -502.854          26.000    26125897.567 9                      -387.924          24.000  
E18  21289636.517 9                      2057.410          35.000    21289633.489 9                      1576.186          32.000  
E 4  28908713.361 9                     -1401.466          25.000                                                                  
J 3  40104826.629 9                     -1349.435          25.000    40104824.382 9                     -1054.586          22.000  
E13                                                                  26770917.281 9                     -1785.651          24.000  
C 8                                                                  40010188.458 8                       958.933          36.000  
R 9                                                                  22539953.948 9                      1666.629          24.000  
J 7                                                                  37981952.906 9                      -401.501          21.000  
J 2                                                                  39994491.643 9                       453.944          24.000  
> 2021  5 17  2 33 29.0050000  0 23                     
G 7  22529476.207 9                      1690.309          25.000                                                                                                                                  
G21  22048488.254 9                       322.836          39.000                                                                                                                                  
G27  24675710.527 9                     -3559.549          21.000                                                                                                                                  
G 1  23001603.995 9                      2581.018          25.000    23001601.172 9                      2008.850          21.000                                                                  
G30  25589159.446 9                      2827.367          23.000                                                                                                                                  
G 8  22529914.582 9                     -2425.048          19.000    22529901.145 9                     -1885.946          12.000                                                                  
C 7  38296851.630 9                      -312.997          16.000                                                                  
C 9  38134002.793 9                     -1845.367          21.000    38133987.598 9                     -1376.579          17.000  
C30  24001955.896 9                      1224.392          19.000                                                                  
C27  23098798.089 9                     -1618.326          21.000                                                                  
R16  21645716.767 9                      -439.859          30.000                                                                  
R19  20838919.385 9                     -1687.468          18.000    20838920.793 9                     -1327.034          16.000  
G 4  25138811.860 9                     -3372.022          15.000                                                                                                                                  
G 9  24463791.533 9                     -2528.237          33.000    24463776.935 9                     -1970.381          21.000                                                                  
E26  24488357.837 9                       451.735          33.000    24488358.783 9                       346.062          30.000  
E21  26125990.285 9                      -489.940          24.000    26125996.782 9                      -369.781          20.000  
E18  21289247.856 9                      2053.500          25.000                                                                  
J 2  39994393.949 9                       592.749          34.000                                                                  
J 3  40105085.110 9                     -1354.551          23.000    40105081.756 9                     -1053.562          20.000  
J 7  37982050.982 9                      -521.992          28.000    37982047.095 9                      -394.700          34.000  
E13                                                                  26771353.935 9                     -1772.778          20.000  
C 8                                                                  40009950.184 4                       962.606          35.000  
R 9                                                                  22539553.877 9                      1677.550          21.000  
> 2021  5 17  2 33 30.0050000  0 23                     
G 7  22529159.046 9                      1697.073          24.000                                                                                                                                  
G21  22048424.819 8 115865253.79135       323.050          36.000                                                                                                                                  
G27  24676391.508 9                     -3579.495          22.000                                                                                                                                  
G 1  23001113.690 8                      2585.824          32.000    23001109.805 9                      2013.075          22.000                                                                  
G30  25588627.284 9                      2821.874          26.000                                                                                                                                  
C 7  38296916.631 9                      -335.771          26.000    38296896.785 9                      -259.567          17.000  
C 9  38134355.638 9                     -1835.494          16.000                                                                  
C30  24001717.206 8                      1215.304          29.000                                                                  
C27  23099109.989 8 120283126.79835     -1618.530          41.000                                                                  
R16  21645799.321 9                      -434.038          31.000    21645807.059 9                      -338.582          33.000  
R19  20839235.547 9                     -1683.713          20.000    20839241.480 9                     -1314.160          32.000  
G 9  24464265.229 8                     -2540.617          32.000    24464260.063 9                     -1977.675          29.000                                                                  
E26  24488269.012 8 128686721.63415       450.884          37.000    24488271.142 4  98604119.56615       344.935          35.000  
S28  38787532.794 9                      -526.531          39.000  
E21  26126080.381 8 137293478.93115      -487.788          37.000    26126079.483 8                      -373.284          31.000  
E18  21288851.392 9                      2055.267          37.000    21288850.390 9                      1574.786          38.000  
